[{"id": "VXVrYjLRqNpQY-ogN9ztmQ", "alias": "cleveland-vegan-lakewood", "name": "Cleveland Vegan", "image_url": "https://s3-media4.fl.yelpcdn.com/bphoto/-Do3CoTDsHlaw45zaITlGA/o.jpg", "is_closed": false, "url": "https://www.yelp.com/biz/cleveland-vegan-lakewood?adjust_creative=XiulpY4J0xx_QhC29cyq-w&utm_campaign=yelp_api_v3&utm_medium=api_v3_business_search&utm_source=XiulpY4J0xx_QhC29cyq-w", "review_count": 295, "categories": [{"alias": "vegan", "title": "Vegan"}, {"alias": "breakfast_brunch", "title": "Breakfast & Brunch"}], "rating": 4.5, "coordinates": {"latitude": 41.4855267595181, "longitude": -81.8161940564166}, "transactions": ["delivery"], "price": "$$", "location": {"address1": "17112 Detroit Ave", "address2": null, "address3": "", "city": "Lakewood", "zip_code": "44107", "country": "US", "state": "OH", "display_address": ["17112 Detroit Ave", "Lakewood, OH 44107"]}, "phone": "+12162210201", "display_phone": "(216) 221-0201", "distance": 10908.787938909576}, {"id": "sS37silzgDcQxarNrJk2WQ", "alias": "thyme-table-bay-village", "name": "Thyme Table", "image_url": "https://s3-media1.fl.yelpcdn.com/bphoto/p0AbvBczgFhbGY9aLk-jaA/o.jpg", "is_closed": false, "url": "https://www.yelp.com/biz/thyme-table-bay-village?adjust_creative=XiulpY4J0xx_QhC29cyq-w&utm_campaign=yelp_api_v3&utm_medium=api_v3_business_search&utm_source=XiulpY4J0xx_QhC29cyq-w", "review_count": 172, "categories": [{"alias": "newamerican", "title": "American (New)"}, {"alias": "cocktailbars", "title": "Cocktail Bars"}, {"alias": "wine_bars", "title": "Wine Bars"}], "rating": 4.5, "coordinates": {"latitude": 41.479158, "longitude": -81.9207637}, "transactions": ["pickup", "delivery"], "price": "$$", "location": {"address1": "583 Dover Center Rd", "address2": "", "address3": null, "city": "Bay Village", "zip_code": "44140", "country": "US", "state": "OH", "display_address": ["583 Dover Center Rd", "Bay Village, OH 44140"]}, "phone": "+14406176964", "display_phone": "(440) 617-6964", "distance": 6628.3243336414425}, {"id": "r4dghMWRoFmBBFlAQvpwrA", "alias": "cockys-bagels-north-olmsted", "name": "Cocky's Bagels", "image_url": "https://s3-media1.fl.yelpcdn.com/bphoto/f3IcYMiMEccOvd0El1AFow/o.jpg", "is_closed": false, "url": "https://www.yelp.com/biz/cockys-bagels-north-olmsted?adjust_creative=XiulpY4J0xx_QhC29cyq-w&utm_campaign=yelp_api_v3&utm_medium=api_v3_business_search&utm_source=XiulpY4J0xx_QhC29cyq-w", "review_count": 194, "categories": [{"alias": "bagels", "title": "Bagels"}, {"alias": "foodtrucks", "title": "Food Trucks"}, {"alias": "burgers", "title": "Burgers"}], "rating": 4.5, "coordinates": {"latitude": 41.419271, "longitude": -81.920495}, "transactions": ["pickup", "delivery"], "price": "$", "location": {"address1": "26703 Brookpark Extension", "address2": null, "address3": "", "city": "North Olmsted", "zip_code": "44070", "country": "US", "state": "OH", "display_address": ["26703 Brookpark Extension", "North Olmsted, OH 44070"]}, "phone": "+14404551205", "display_phone": "(440) 455-1205", "distance": 596.588884810156}, {"id": "EAiFR299WV3OQ68pHMlmGw", "alias": "phnom-penh-north-olmsted-2", "name": "Phnom Penh", "image_url": "https://s3-media3.fl.yelpcdn.com/bphoto/k6nddWylzjuUtJrYuHRXjw/o.jpg", "is_closed": false, "url": "https://www.yelp.com/biz/phnom-penh-north-olmsted-2?adjust_creative=XiulpY4J0xx_QhC29cyq-w&utm_campaign=yelp_api_v3&utm_medium=api_v3_business_search&utm_source=XiulpY4J0xx_QhC29cyq-w", "review_count": 118, "categories": [{"alias": "cambodian", "title": "Cambodian"}, {"alias": "vietnamese", "title": "Vietnamese"}], "rating": 4.0, "coordinates": {"latitude": 41.41678, "longitude": -81.92207}, "transactions": ["delivery"], "price": "$$", "location": {"address1": "27080 Lorain Rd", "address2": "", "address3": "", "city": "North Olmsted", "zip_code": "44070", "country": "US", "state": "OH", "display_address": ["27080 Lorain Rd", "North Olmsted, OH 44070"]}, "phone": "+12162510210", "display_phone": "(216) 251-0210", "distance": 797.6024517949328}, {"id": "yBbqFPuwFiaom435KOY4cg", "alias": "mashiso-asian-grille-north-olmsted", "name": "Mashiso Asian Grille", "image_url": "https://s3-media2.fl.yelpcdn.com/bphoto/Bepp8mclqL6vWhx63pR3zA/o.jpg", "is_closed": false, "url": "https://www.yelp.com/biz/mashiso-asian-grille-north-olmsted?adjust_creative=XiulpY4J0xx_QhC29cyq-w&utm_campaign=yelp_api_v3&utm_medium=api_v3_business_search&utm_source=XiulpY4J0xx_QhC29cyq-w", "review_count": 152, "categories": [{"alias": "asianfusion", "title": "Asian Fusion"}, {"alias": "korean", "title": "Korean"}], "rating": 4.0, "coordinates": {"latitude": 41.419502, "longitude": -81.898061}, "transactions": ["pickup", "delivery"], "price": "$", "location": {"address1": "24954 Brookpark Rd", "address2": "", "address3": "", "city": "North Olmsted", "zip_code": "44070", "country": "US", "state": "OH", "display_address": ["24954 Brookpark Rd", "North Olmsted, OH 44070"]}, "phone": "+14408011184", "display_phone": "(440) 801-1184", "distance": 1277.4484966093428}, {"id": "G2_L24HgSEwRWSjODhNnzA", "alias": "sittoos-pita-and-salad-north-olmsted", "name": "Sittoo's Pita & Salad", "image_url": "https://s3-media2.fl.yelpcdn.com/bphoto/7aPSk_Aj0bVU1MlfR1tnzg/o.jpg", "is_closed": false, "url": "https://www.yelp.com/biz/sittoos-pita-and-salad-north-olmsted?adjust_creative=XiulpY4J0xx_QhC29cyq-w&utm_campaign=yelp_api_v3&utm_medium=api_v3_business_search&utm_source=XiulpY4J0xx_QhC29cyq-w", "review_count": 177, "categories": [{"alias": "lebanese", "title": "Lebanese"}, {"alias": "mediterranean", "title": "Mediterranean"}, {"alias": "salad", "title": "Salad"}], "rating": 4.5, "coordinates": {"latitude": 41.4253082, "longitude": -81.8979079}, "transactions": ["delivery"], "price": "$", "location": {"address1": "24930 Lorain Rd", "address2": "", "address3": "", "city": "North Olmsted", "zip_code": "44070", "country": "US", "state": "OH", "display_address": ["24930 Lorain Rd", "North Olmsted, OH 44070"]}, "phone": "+14407168755", "display_phone": "(440) 716-8755", "distance": 1427.4826268312922}, {"id": "7hrC58k9Opx_B1HX__e4pg", "alias": "propaganda-coffee-lakewood", "name": "Propaganda Coffee", "image_url": "https://s3-media4.fl.yelpcdn.com/bphoto/PE7oquHnoy6VvUHovt8WkA/o.jpg", "is_closed": false, "url": "https://www.yelp.com/biz/propaganda-coffee-lakewood?adjust_creative=XiulpY4J0xx_QhC29cyq-w&utm_campaign=yelp_api_v3&utm_medium=api_v3_business_search&utm_source=XiulpY4J0xx_QhC29cyq-w", "review_count": 27, "categories": [{"alias": "vegan", "title": "Vegan"}, {"alias": "gluten_free", "title": "Gluten-Free"}, {"alias": "cafes", "title": "Cafes"}], "rating": 4.5, "coordinates": {"latitude": 41.48474, "longitude": -81.82057}, "transactions": ["delivery"], "location": {"address1": "17806 Detroit Ave", "address2": "", "address3": null, "city": "Lakewood", "zip_code": "44107", "country": "US", "state": "OH", "display_address": ["17806 Detroit Ave", "Lakewood, OH 44107"]}, "phone": "+12167675811", "display_phone": "(216) 767-5811", "distance": 10575.475468399069}, {"id": "ja0gucY4AK86WD7UESXRLg", "alias": "cilantro-taqueria-north-olmsted", "name": "Cilantro Taqueria", "image_url": "https://s3-media4.fl.yelpcdn.com/bphoto/sL36lJWCYZfWYKJ_J3RmVw/o.jpg", "is_closed": false, "url": "https://www.yelp.com/biz/cilantro-taqueria-north-olmsted?adjust_creative=XiulpY4J0xx_QhC29cyq-w&utm_campaign=yelp_api_v3&utm_medium=api_v3_business_search&utm_source=XiulpY4J0xx_QhC29cyq-w", "review_count": 71, "categories": [{"alias": "tacos", "title": "Tacos"}, {"alias": "latin", "title": "Latin American"}, {"alias": "tex-mex", "title": "Tex-Mex"}], "rating": 4.5, "coordinates": {"latitude": 41.42543, "longitude": -81.89843}, "transactions": [], "price": "$$", "location": {"address1": "24950 Lorain Rd", "address2": null, "address3": "", "city": "North Olmsted", "zip_code": "44070", "country": "US", "state": "OH", "display_address": ["24950 Lorain Rd", "North Olmsted, OH 44070"]}, "phone": "+14404967971", "display_phone": "(440) 496-7971", "distance": 1394.6503771849955}, {"id": "78uIa-R7QG8CinJc7M4B6w", "alias": "rood-lakewood", "name": "Rood", "image_url": "https://s3-media3.fl.yelpcdn.com/bphoto/sXqz0hvlwt6ur5LjfSDYAQ/o.jpg", "is_closed": false, "url": "https://www.yelp.com/biz/rood-lakewood?adjust_creative=XiulpY4J0xx_QhC29cyq-w&utm_campaign=yelp_api_v3&utm_medium=api_v3_business_search&utm_source=XiulpY4J0xx_QhC29cyq-w", "review_count": 280, "categories": [{"alias": "desserts", "title": "Desserts"}, {"alias": "newamerican", "title": "American (New)"}, {"alias": "cocktailbars", "title": "Cocktail Bars"}], "rating": 4.5, "coordinates": {"latitude": 41.47742, "longitude": -81.815}, "transactions": ["pickup", "delivery"], "price": "$$", "location": {"address1": "17001 Madison Ave", "address2": null, "address3": "", "city": "Lakewood", "zip_code": "44107", "country": "US", "state": "OH", "display_address": ["17001 Madison Ave", "Lakewood, OH 44107"]}, "phone": "+12167124506", "display_phone": "(216) 712-4506", "distance": 10386.192506249337}, {"id": "7BQTbzVotCCHWEmgsx09zA", "alias": "boss-chicknbeer-berea", "name": "Boss ChickNBeer", "image_url": "https://s3-media4.fl.yelpcdn.com/bphoto/FmJ5h_WL5ZCjmQszYjnumg/o.jpg", "is_closed": false, "url": "https://www.yelp.com/biz/boss-chicknbeer-berea?adjust_creative=XiulpY4J0xx_QhC29cyq-w&utm_campaign=yelp_api_v3&utm_medium=api_v3_business_search&utm_source=XiulpY4J0xx_QhC29cyq-w", "review_count": 215, "categories": [{"alias": "chicken_wings", "title": "Chicken Wings"}], "rating": 4.5, "coordinates": {"latitude": 41.368484895429866, "longitude": -81.85287697257733}, "transactions": ["delivery"], "price": "$$", "location": {"address1": "120 Front St", "address2": "", "address3": null, "city": "Berea", "zip_code": "44017", "country": "US", "state": "OH", "display_address": ["120 Front St", "Berea, OH 44017"]}, "phone": "+14405327660", "display_phone": "(440) 532-7660", "distance": 7617.959188662856}, {"id": "KQo7Wp3-JcaDtxykjbDhpQ", "alias": "raan-thai-fairview-park", "name": "RAAN THAI", "image_url": "https://s3-media1.fl.yelpcdn.com/bphoto/14_VHrZU6gKrmW-2A8hRxA/o.jpg", "is_closed": false, "url": "https://www.yelp.com/biz/raan-thai-fairview-park?adjust_creative=XiulpY4J0xx_QhC29cyq-w&utm_campaign=yelp_api_v3&utm_medium=api_v3_business_search&utm_source=XiulpY4J0xx_QhC29cyq-w", "review_count": 59, "categories": [{"alias": "thai", "title": "Thai"}, {"alias": "ramen", "title": "Ramen"}, {"alias": "desserts", "title": "Desserts"}], "rating": 4.5, "coordinates": {"latitude": 41.43920883737388, "longitude": -81.87056350271925}, "transactions": [], "location": {"address1": "22610 Lorain Rd", "address2": "", "address3": null, "city": "Fairview Park", "zip_code": "44126", "country": "US", "state": "OH", "display_address": ["22610 Lorain Rd", "Fairview Park, OH 44126"]}, "phone": "+14408276003", "display_phone": "(440) 827-6003", "distance": 4170.700149014446}, {"id": "AKjVWM7vKxZEP_5rpa4MEw", "alias": "boss-chicknbeer-bay-village", "name": "Boss ChickNBeer", "image_url": "https://s3-media2.fl.yelpcdn.com/bphoto/YRrSgHf1o5pqg0BctgYMlw/o.jpg", "is_closed": false, "url": "https://www.yelp.com/biz/boss-chicknbeer-bay-village?adjust_creative=XiulpY4J0xx_QhC29cyq-w&utm_campaign=yelp_api_v3&utm_medium=api_v3_business_search&utm_source=XiulpY4J0xx_QhC29cyq-w", "review_count": 56, "categories": [{"alias": "chicken_wings", "title": "Chicken Wings"}, {"alias": "beerbar", "title": "Beer Bar"}, {"alias": "sandwiches", "title": "Sandwiches"}], "rating": 4.5, "coordinates": {"latitude": 41.48479884748354, "longitude": -81.92261481408633}, "transactions": [], "location": {"address1": "27321 Wolf Rd", "address2": "", "address3": null, "city": "Bay Village", "zip_code": "44140", "country": "US", "state": "OH", "display_address": ["27321 Wolf Rd", "Bay Village, OH 44140"]}, "phone": "+14404559686", "display_phone": "(440) 455-9686", "distance": 7267.798900526251}, {"id": "tr52XhbW1EaC0Z61V8vPkw", "alias": "umami-rice-bowls-fairview-park", "name": "Umami Rice Bowls", "image_url": "https://s3-media4.fl.yelpcdn.com/bphoto/AJfpDncdfeq24rxdenb__w/o.jpg", "is_closed": false, "url": "https://www.yelp.com/biz/umami-rice-bowls-fairview-park?adjust_creative=XiulpY4J0xx_QhC29cyq-w&utm_campaign=yelp_api_v3&utm_medium=api_v3_business_search&utm_source=XiulpY4J0xx_QhC29cyq-w", "review_count": 33, "categories": [{"alias": "poke", "title": "Poke"}, {"alias": "japanese", "title": "Japanese"}], "rating": 4.5, "coordinates": {"latitude": 41.44017, "longitude": -81.86662}, "transactions": [], "location": {"address1": "22255 Lorain Rd", "address2": "", "address3": null, "city": "Fairview Park", "zip_code": "44126", "country": "US", "state": "OH", "display_address": ["22255 Lorain Rd", "Fairview Park, OH 44126"]}, "phone": "+14403857295", "display_phone": "(440) 385-7295", "distance": 4507.166668936639}, {"id": "ZJXXUiUJQ659aY8BIQKbsQ", "alias": "sips-and-such-social-house-middleburg-heights", "name": "Sips and Such Social House", "image_url": "https://s3-media1.fl.yelpcdn.com/bphoto/h3axuS11AfcWlzFX2dIUVg/o.jpg", "is_closed": false, "url": "https://www.yelp.com/biz/sips-and-such-social-house-middleburg-heights?adjust_creative=XiulpY4J0xx_QhC29cyq-w&utm_campaign=yelp_api_v3&utm_medium=api_v3_business_search&utm_source=XiulpY4J0xx_QhC29cyq-w", "review_count": 152, "categories": [{"alias": "coffee", "title": "Coffee & Tea"}, {"alias": "breakfast_brunch", "title": "Breakfast & Brunch"}, {"alias": "sandwiches", "title": "Sandwiches"}], "rating": 4.5, "coordinates": {"latitude": 41.3600786, "longitude": -81.8136464}, "transactions": ["pickup", "delivery"], "price": "$$", "location": {"address1": "7535 Pearl Rd", "address2": null, "address3": "", "city": "Middleburg Heights", "zip_code": "44130", "country": "US", "state": "OH", "display_address": ["7535 Pearl Rd", "Middleburg Heights, OH 44130"]}, "phone": "+14405327078", "display_phone": "(440) 532-7078", "distance": 10645.311698920501}, {"id": "ZTg8adZipR3QDoJmFZZqJw", "alias": "yard-house-westlake-4", "name": "Yard House", "image_url": "https://s3-media1.fl.yelpcdn.com/bphoto/Ou2u254PCCsZLpxjAh1Ebw/o.jpg", "is_closed": false, "url": "https://www.yelp.com/biz/yard-house-westlake-4?adjust_creative=XiulpY4J0xx_QhC29cyq-w&utm_campaign=yelp_api_v3&utm_medium=api_v3_business_search&utm_source=XiulpY4J0xx_QhC29cyq-w", "review_count": 484, "categories": [{"alias": "bars", "title": "Bars"}, {"alias": "vegetarian", "title": "Vegetarian"}, {"alias": "newamerican", "title": "American (New)"}], "rating": 4.0, "coordinates": {"latitude": 41.4611317195217, "longitude": -81.9515731776322}, "transactions": ["pickup", "delivery"], "price": "$$", "location": {"address1": "160 Union St", "address2": null, "address3": null, "city": "Westlake", "zip_code": "44145", "country": "US", "state": "OH", "display_address": ["160 Union St", "Westlake, OH 44145"]}, "phone": "+14408088403", "display_phone": "(440) 808-8403", "distance": 5590.527530947754}, {"id": "fBg_BALfHGKVw2tUYboFsw", "alias": "takis-greek-kitchen-avon-lake", "name": "Taki's Greek Kitchen", "image_url": "https://s3-media3.fl.yelpcdn.com/bphoto/7Rr0W6jkpu-nc7f2zRoG3w/o.jpg", "is_closed": false, "url": "https://www.yelp.com/biz/takis-greek-kitchen-avon-lake?adjust_creative=XiulpY4J0xx_QhC29cyq-w&utm_campaign=yelp_api_v3&utm_medium=api_v3_business_search&utm_source=XiulpY4J0xx_QhC29cyq-w", "review_count": 201, "categories": [{"alias": "greek", "title": "Greek"}, {"alias": "mediterranean", "title": "Mediterranean"}, {"alias": "bars", "title": "Bars"}], "rating": 4.5, "coordinates": {"latitude": 41.49524, "longitude": -81.9877}, "transactions": ["delivery"], "price": "$$", "location": {"address1": "377 Lear Rd", "address2": "", "address3": "", "city": "Avon Lake", "zip_code": "44012", "country": "US", "state": "OH", "display_address": ["377 Lear Rd", "Avon Lake, OH 44012"]}, "phone": "+14409308888", "display_phone": "(440) 930-8888", "distance": 10421.122618253678}, {"id": "VRLa3aRIIdyllRKObVL7Ww", "alias": "quinns-kitchen-and-bar-bay-village", "name": "Quinn's Kitchen and Bar", "image_url": "https://s3-media2.fl.yelpcdn.com/bphoto/znO-ZM9K5XwO8NIrCnMxlA/o.jpg", "is_closed": false, "url": "https://www.yelp.com/biz/quinns-kitchen-and-bar-bay-village?adjust_creative=XiulpY4J0xx_QhC29cyq-w&utm_campaign=yelp_api_v3&utm_medium=api_v3_business_search&utm_source=XiulpY4J0xx_QhC29cyq-w", "review_count": 29, "categories": [{"alias": "tradamerican", "title": "American (Traditional)"}, {"alias": "bars", "title": "Bars"}], "rating": 4.5, "coordinates": {"latitude": 41.47741, "longitude": -81.90224}, "transactions": [], "location": {"address1": "25517 Eaton Way", "address2": null, "address3": "", "city": "Bay Village", "zip_code": "44140", "country": "US", "state": "OH", "display_address": ["25517 Eaton Way", "Bay Village, OH 44140"]}, "phone": "+14404551237", "display_phone": "(440) 455-1237", "distance": 6476.462815654779}, {"id": "XewJGPOykSllooFcDWSpIw", "alias": "saffron-patch-west-north-olmsted", "name": "Saffron Patch West", "image_url": "https://s3-media2.fl.yelpcdn.com/bphoto/XT39zZbS0asXXuvvQrzpYA/o.jpg", "is_closed": false, "url": "https://www.yelp.com/biz/saffron-patch-west-north-olmsted?adjust_creative=XiulpY4J0xx_QhC29cyq-w&utm_campaign=yelp_api_v3&utm_medium=api_v3_business_search&utm_source=XiulpY4J0xx_QhC29cyq-w", "review_count": 9, "categories": [{"alias": "indpak", "title": "Indian"}, {"alias": "desserts", "title": "Desserts"}], "rating": 3.0, "coordinates": {"latitude": 41.41550476428971, "longitude": -81.91179100424051}, "transactions": ["pickup", "delivery"], "location": {"address1": "5106 Great Northern Shop Ctr", "address2": "", "address3": null, "city": "North Olmsted", "zip_code": "44070", "country": "US", "state": "OH", "display_address": ["5106 Great Northern Shop Ctr", "North Olmsted, OH 44070"]}, "phone": "+14407341500", "display_phone": "(440) 734-1500", "distance": 496.16948893574505}, {"id": "BNLc7vz3DNVupi2AU0J16Q", "alias": "mooyah-burgers-fries-and-shakes-middleburg-heights", "name": "MOOYAH Burgers, Fries & Shakes", "image_url": "https://s3-media4.fl.yelpcdn.com/bphoto/gdsE4HjQNZNAbPSLRDBL1A/o.jpg", "is_closed": false, "url": "https://www.yelp.com/biz/mooyah-burgers-fries-and-shakes-middleburg-heights?adjust_creative=XiulpY4J0xx_QhC29cyq-w&utm_campaign=yelp_api_v3&utm_medium=api_v3_business_search&utm_source=XiulpY4J0xx_QhC29cyq-w", "review_count": 88, "categories": [{"alias": "burgers", "title": "Burgers"}, {"alias": "icecream", "title": "Ice Cream & Frozen Yogurt"}, {"alias": "hotdog", "title": "Hot Dogs"}], "rating": 4.0, "coordinates": {"latitude": 41.37176, "longitude": -81.83621}, "transactions": ["delivery"], "location": {"address1": "19137 Bagley Rd", "address2": "", "address3": null, "city": "Middleburg Heights", "zip_code": "44130", "country": "US", "state": "OH", "display_address": ["19137 Bagley Rd", "Middleburg Heights, OH 44130"]}, "phone": "+14402974360", "display_phone": "(440) 297-4360", "distance": 8364.971851448983}, {"id": "DjjYhQmIaTpe1ivUSgTFcw", "alias": "cle-nutrition-north-olmsted", "name": "CLE Nutrition", "image_url": "https://s3-media3.fl.yelpcdn.com/bphoto/g2wyg-Pp-gBQMWD-Nm2NHA/o.jpg", "is_closed": false, "url": "https://www.yelp.com/biz/cle-nutrition-north-olmsted?adjust_creative=XiulpY4J0xx_QhC29cyq-w&utm_campaign=yelp_api_v3&utm_medium=api_v3_business_search&utm_source=XiulpY4J0xx_QhC29cyq-w", "review_count": 37, "categories": [{"alias": "juicebars", "title": "Juice Bars & Smoothies"}, {"alias": "coffee", "title": "Coffee & Tea"}], "rating": 3.0, "coordinates": {"latitude": 41.419141, "longitude": -81.920602}, "transactions": [], "price": "$$$$", "location": {"address1": "26715 Brookpark Rd Ext", "address2": null, "address3": "", "city": "North Olmsted", "zip_code": "44070", "country": "US", "state": "OH", "display_address": ["26715 Brookpark Rd Ext", "North Olmsted, OH 44070"]}, "phone": "+12162997808", "display_phone": "(216) 299-7808", "distance": 607.0578004577729}, {"id": "JHtxvPm0XFAeGJ1OdviCrA", "alias": "thai-chili-lake", "name": "Thai Chili", "image_url": "https://s3-media3.fl.yelpcdn.com/bphoto/z5ULIJhraFVIZyqbs9TrtA/o.jpg", "is_closed": false, "url": "https://www.yelp.com/biz/thai-chili-lake?adjust_creative=XiulpY4J0xx_QhC29cyq-w&utm_campaign=yelp_api_v3&utm_medium=api_v3_business_search&utm_source=XiulpY4J0xx_QhC29cyq-w", "review_count": 127, "categories": [{"alias": "thai", "title": "Thai"}], "rating": 4.5, "coordinates": {"latitude": 41.4936085529925, "longitude": -82.0171231533805}, "transactions": ["delivery"], "price": "$$", "location": {"address1": "32730 Walker Rd Suite D3 Avon", "address2": "Ste D3", "address3": "", "city": "Lake", "zip_code": "44012", "country": "US", "state": "OH", "display_address": ["32730 Walker Rd Suite D3 Avon", "Ste D3", "Lake, OH 44012"]}, "phone": "+14409338424", "display_phone": "(440) 933-8424", "distance": 11663.509614866665}, {"id": "8x2hxb4nnnzfFvg1d8RmHA", "alias": "brusters-real-ice-cream-north-olmsted", "name": "Bruster's Real Ice Cream", "image_url": "https://s3-media1.fl.yelpcdn.com/bphoto/NXpNY-9rw-bnB1lL_JVH-w/o.jpg", "is_closed": false, "url": "https://www.yelp.com/biz/brusters-real-ice-cream-north-olmsted?adjust_creative=XiulpY4J0xx_QhC29cyq-w&utm_campaign=yelp_api_v3&utm_medium=api_v3_business_search&utm_source=XiulpY4J0xx_QhC29cyq-w", "review_count": 25, "categories": [{"alias": "icecream", "title": "Ice Cream & Frozen Yogurt"}, {"alias": "customcakes", "title": "Custom Cakes"}, {"alias": "juicebars", "title": "Juice Bars & Smoothies"}], "rating": 4.5, "coordinates": {"latitude": 41.41657612304524, "longitude": -81.92136209491662}, "transactions": [], "location": {"address1": "27045 Lorain Rd", "address2": null, "address3": null, "city": "North Olmsted", "zip_code": "44070", "country": "US", "state": "OH", "display_address": ["27045 Lorain Rd", "North Olmsted, OH 44070"]}, "phone": "+14404714646", "display_phone": "(440) 471-4646", "distance": 79.47495842232065}, {"id": "d4dnvhW1HPSk50wTr14gBg", "alias": "ohio-pie-co-rocky-river-rocky-river", "name": "Ohio Pie Co Rocky River", "image_url": "https://s3-media3.fl.yelpcdn.com/bphoto/UBCueiny3yj2RQ4kba221A/o.jpg", "is_closed": false, "url": "https://www.yelp.com/biz/ohio-pie-co-rocky-river-rocky-river?adjust_creative=XiulpY4J0xx_QhC29cyq-w&utm_campaign=yelp_api_v3&utm_medium=api_v3_business_search&utm_source=XiulpY4J0xx_QhC29cyq-w", "review_count": 56, "categories": [{"alias": "pizza", "title": "Pizza"}], "rating": 4.5, "coordinates": {"latitude": 41.47975124892601, "longitude": -81.83918368793388}, "transactions": ["delivery"], "price": "$$", "location": {"address1": "19565 Detroit Rd", "address2": null, "address3": "", "city": "Rocky River", "zip_code": "44116", "country": "US", "state": "OH", "display_address": ["19565 Detroit Rd", "Rocky River, OH 44116"]}, "phone": "+12163537777", "display_phone": "(216) 353-7777", "distance": 9875.370121199516}, {"id": "BnHpWFA1LuIn0bAfbiWsrw", "alias": "bistro-83-north-ridgeville", "name": "Bistro 83", "image_url": "https://s3-media1.fl.yelpcdn.com/bphoto/v_sm5iYuoE6Vb2dRJz03Kw/o.jpg", "is_closed": false, "url": "https://www.yelp.com/biz/bistro-83-north-ridgeville?adjust_creative=XiulpY4J0xx_QhC29cyq-w&utm_campaign=yelp_api_v3&utm_medium=api_v3_business_search&utm_source=XiulpY4J0xx_QhC29cyq-w", "review_count": 166, "categories": [{"alias": "newamerican", "title": "American (New)"}, {"alias": "wine_bars", "title": "Wine Bars"}], "rating": 4.0, "coordinates": {"latitude": 41.41766, "longitude": -82.01945}, "transactions": ["delivery"], "price": "$$", "location": {"address1": "36033 Westminister Dr", "address2": "", "address3": "", "city": "North Ridgeville", "zip_code": "44039", "country": "US", "state": "OH", "display_address": ["36033 Westminister Dr", "North Ridgeville, OH 44039"]}, "phone": "+14403532828", "display_phone": "(440) 353-2828", "distance": 8108.944166424695}, {"id": "3MGtGtuRTtWaoZx-7pwC_g", "alias": "yogurt-vi-north-olmsted", "name": "Yogurt Vi", "image_url": "https://s3-media4.fl.yelpcdn.com/bphoto/ihd5XHVEaHxVfCtSiTiqXg/o.jpg", "is_closed": false, "url": "https://www.yelp.com/biz/yogurt-vi-north-olmsted?adjust_creative=XiulpY4J0xx_QhC29cyq-w&utm_campaign=yelp_api_v3&utm_medium=api_v3_business_search&utm_source=XiulpY4J0xx_QhC29cyq-w", "review_count": 15, "categories": [{"alias": "icecream", "title": "Ice Cream & Frozen Yogurt"}], "rating": 3.5, "coordinates": {"latitude": 41.4186859, "longitude": -81.9096756}, "transactions": [], "price": "$", "location": {"address1": "148 Great Northern Mall", "address2": null, "address3": "", "city": "North Olmsted", "zip_code": "44070", "country": "US", "state": "OH", "display_address": ["148 Great Northern Mall", "North Olmsted, OH 44070"]}, "phone": "+14407161002", "display_phone": "(440) 716-1002", "distance": 136.34593498041986}, {"id": "OkC86YtZ0Nm19my5F4GGrQ", "alias": "tartine-bistro-rocky-river-2", "name": "Tartine Bistro", "image_url": "https://s3-media2.fl.yelpcdn.com/bphoto/VMuOtTvHGCJgSg-M29ew6Q/o.jpg", "is_closed": false, "url": "https://www.yelp.com/biz/tartine-bistro-rocky-river-2?adjust_creative=XiulpY4J0xx_QhC29cyq-w&utm_campaign=yelp_api_v3&utm_medium=api_v3_business_search&utm_source=XiulpY4J0xx_QhC29cyq-w", "review_count": 193, "categories": [{"alias": "french", "title": "French"}, {"alias": "wine_bars", "title": "Wine Bars"}], "rating": 4.0, "coordinates": {"latitude": 41.48303, "longitude": -81.83426}, "transactions": ["pickup", "delivery"], "price": "$$", "location": {"address1": "19110 Old Detroit Rd", "address2": "", "address3": "", "city": "Rocky River", "zip_code": "44116", "country": "US", "state": "OH", "display_address": ["19110 Old Detroit Rd", "Rocky River, OH 44116"]}, "phone": "+14403310800", "display_phone": "(440) 331-0800", "distance": 10421.663245820035}, {"id": "ttwba0MugfWyfGB9HH6fMQ", "alias": "danny-boys-pizza-north-olmsted", "name": "Danny Boys Pizza", "image_url": "https://s3-media1.fl.yelpcdn.com/bphoto/X5xyESVh2hOvMC1YZzrZUQ/o.jpg", "is_closed": false, "url": "https://www.yelp.com/biz/danny-boys-pizza-north-olmsted?adjust_creative=XiulpY4J0xx_QhC29cyq-w&utm_campaign=yelp_api_v3&utm_medium=api_v3_business_search&utm_source=XiulpY4J0xx_QhC29cyq-w", "review_count": 80, "categories": [{"alias": "pizza", "title": "Pizza"}, {"alias": "bars", "title": "Bars"}, {"alias": "italian", "title": "Italian"}], "rating": 4.0, "coordinates": {"latitude": 41.4290175, "longitude": -81.8894392}, "transactions": ["delivery", "pickup"], "price": "$$", "location": {"address1": "24129 Lorain Rd", "address2": null, "address3": "", "city": "North Olmsted", "zip_code": "44070", "country": "US", "state": "OH", "display_address": ["24129 Lorain Rd", "North Olmsted, OH 44070"]}, "phone": "+14403607800", "display_phone": "(440) 360-7800", "distance": 3069.7537362859553}, {"id": "9MpWhQOYziJ38EB7MctxcA", "alias": "cafe-tandoor-westlake-2", "name": "Cafe Tandoor", "image_url": "https://s3-media2.fl.yelpcdn.com/bphoto/sgM2wcbnBTXCFcYE4e9bUQ/o.jpg", "is_closed": false, "url": "https://www.yelp.com/biz/cafe-tandoor-westlake-2?adjust_creative=XiulpY4J0xx_QhC29cyq-w&utm_campaign=yelp_api_v3&utm_medium=api_v3_business_search&utm_source=XiulpY4J0xx_QhC29cyq-w", "review_count": 161, "categories": [{"alias": "indpak", "title": "Indian"}], "rating": 3.5, "coordinates": {"latitude": 41.4635449, "longitude": -81.9535004}, "transactions": ["delivery", "pickup"], "price": "$$", "location": {"address1": "30030 Detroit Rd", "address2": "", "address3": "", "city": "Westlake", "zip_code": "44145", "country": "US", "state": "OH", "display_address": ["30030 Detroit Rd", "Westlake, OH 44145"]}, "phone": "+14408352882", "display_phone": "(440) 835-2882", "distance": 6011.119891339636}, {"id": "lMPfMj4BRBfwh4XkPwUQ1Q", "alias": "pacific-east-westlake", "name": "Pacific East", "image_url": "https://s3-media4.fl.yelpcdn.com/bphoto/yXCoaUPkMxqnh152MZ3M5Q/o.jpg", "is_closed": false, "url": "https://www.yelp.com/biz/pacific-east-westlake?adjust_creative=XiulpY4J0xx_QhC29cyq-w&utm_campaign=yelp_api_v3&utm_medium=api_v3_business_search&utm_source=XiulpY4J0xx_QhC29cyq-w", "review_count": 54, "categories": [{"alias": "sushi", "title": "Sushi Bars"}, {"alias": "bubbletea", "title": "Bubble Tea"}], "rating": 4.5, "coordinates": {"latitude": 41.461284, "longitude": -81.9521618}, "transactions": ["delivery"], "price": "$$", "location": {"address1": "186 Union St", "address2": "", "address3": null, "city": "Westlake", "zip_code": "44145", "country": "US", "state": "OH", "display_address": ["186 Union St", "Westlake, OH 44145"]}, "phone": "+14407724037", "display_phone": "(440) 772-4037", "distance": 5571.2584419294835}, {"id": "sWucpMb_MDdqAthWFFisow", "alias": "joes-deli-rocky-river", "name": "Joe's Deli", "image_url": "https://s3-media2.fl.yelpcdn.com/bphoto/k9B8tFb-x4H0mQ41Q23tWQ/o.jpg", "is_closed": false, "url": "https://www.yelp.com/biz/joes-deli-rocky-river?adjust_creative=XiulpY4J0xx_QhC29cyq-w&utm_campaign=yelp_api_v3&utm_medium=api_v3_business_search&utm_source=XiulpY4J0xx_QhC29cyq-w", "review_count": 396, "categories": [{"alias": "delis", "title": "Delis"}, {"alias": "newamerican", "title": "American (New)"}, {"alias": "lebanese", "title": "Lebanese"}], "rating": 4.0, "coordinates": {"latitude": 41.4711936929179, "longitude": -81.8358972758574}, "transactions": ["delivery"], "price": "$$", "location": {"address1": "19215 Hilliard Blvd", "address2": "", "address3": "", "city": "Rocky River", "zip_code": "44116", "country": "US", "state": "OH", "display_address": ["19215 Hilliard Blvd", "Rocky River, OH 44116"]}, "phone": "+14403337890", "display_phone": "(440) 333-7890", "distance": 9429.299484943896}, {"id": "NN6HpdvQlGZUVjBwzhgUWQ", "alias": "rocky-river-brewing-company-rocky-river", "name": "Rocky River Brewing Company", "image_url": "https://s3-media3.fl.yelpcdn.com/bphoto/y8feNfUQ5akr2p5SgZjhnA/o.jpg", "is_closed": false, "url": "https://www.yelp.com/biz/rocky-river-brewing-company-rocky-river?adjust_creative=XiulpY4J0xx_QhC29cyq-w&utm_campaign=yelp_api_v3&utm_medium=api_v3_business_search&utm_source=XiulpY4J0xx_QhC29cyq-w", "review_count": 312, "categories": [{"alias": "breweries", "title": "Breweries"}, {"alias": "newamerican", "title": "American (New)"}, {"alias": "pizza", "title": "Pizza"}], "rating": 3.5, "coordinates": {"latitude": 41.46101, "longitude": -81.85615}, "transactions": ["delivery"], "price": "$$", "location": {"address1": "21290 Center Ridge Rd", "address2": null, "address3": "", "city": "Rocky River", "zip_code": "44116", "country": "US", "state": "OH", "display_address": ["21290 Center Ridge Rd", "Rocky River, OH 44116"]}, "phone": "+14408952739", "display_phone": "(440) 895-2739", "distance": 7413.86711660838}, {"id": "dpJbQLWxCgbNd9sboaed1w", "alias": "mojos-coffee-and-more-bay-village", "name": "Mojo's Coffee and More", "image_url": "https://s3-media1.fl.yelpcdn.com/bphoto/CqtI0PW5YnRJQKyvDRgeUQ/o.jpg", "is_closed": false, "url": "https://www.yelp.com/biz/mojos-coffee-and-more-bay-village?adjust_creative=XiulpY4J0xx_QhC29cyq-w&utm_campaign=yelp_api_v3&utm_medium=api_v3_business_search&utm_source=XiulpY4J0xx_QhC29cyq-w", "review_count": 136, "categories": [{"alias": "coffee", "title": "Coffee & Tea"}, {"alias": "breakfast_brunch", "title": "Breakfast & Brunch"}, {"alias": "sandwiches", "title": "Sandwiches"}], "rating": 4.5, "coordinates": {"latitude": 41.47869, "longitude": -81.92148}, "transactions": ["delivery"], "price": "$", "location": {"address1": "600 Dover Center Rd", "address2": "", "address3": null, "city": "Bay Village", "zip_code": "44140", "country": "US", "state": "OH", "display_address": ["600 Dover Center Rd", "Bay Village, OH 44140"]}, "phone": "+14408924040", "display_phone": "(440) 892-4040", "distance": 6908.887473894122}, {"id": "9rT5kZY-RLDQTeOkmojRNA", "alias": "earth-fare-fairview-park", "name": "Earth Fare", "image_url": "https://s3-media2.fl.yelpcdn.com/bphoto/rsl58VFKCHPx4z5IzFh-bw/o.jpg", "is_closed": false, "url": "https://www.yelp.com/biz/earth-fare-fairview-park?adjust_creative=XiulpY4J0xx_QhC29cyq-w&utm_campaign=yelp_api_v3&utm_medium=api_v3_business_search&utm_source=XiulpY4J0xx_QhC29cyq-w", "review_count": 81, "categories": [{"alias": "grocery", "title": "Grocery"}, {"alias": "healthmarkets", "title": "Health Markets"}, {"alias": "markets", "title": "Fruits & Veggies"}], "rating": 3.5, "coordinates": {"latitude": 41.45989493392923, "longitude": -81.85143001748557}, "transactions": [], "price": "$$$", "location": {"address1": "3450 Westgate", "address2": "", "address3": "", "city": "Fairview Park", "zip_code": "44126", "country": "US", "state": "OH", "display_address": ["3450 Westgate", "Fairview Park, OH 44126"]}, "phone": "+14403562262", "display_phone": "(440) 356-2262", "distance": 7630.897377223905}, {"id": "n_UlhRNcv9dm04NbUNBrFQ", "alias": "currito-cleveland-4", "name": "Currito", "image_url": "https://s3-media1.fl.yelpcdn.com/bphoto/zJ7Z25ZizKrMhVpQrVpexQ/o.jpg", "is_closed": false, "url": "https://www.yelp.com/biz/currito-cleveland-4?adjust_creative=XiulpY4J0xx_QhC29cyq-w&utm_campaign=yelp_api_v3&utm_medium=api_v3_business_search&utm_source=XiulpY4J0xx_QhC29cyq-w", "review_count": 96, "categories": [{"alias": "salad", "title": "Salad"}, {"alias": "juicebars", "title": "Juice Bars & Smoothies"}, {"alias": "newamerican", "title": "American (New)"}], "rating": 3.5, "coordinates": {"latitude": 41.410535365177395, "longitude": -81.83918520861417}, "transactions": ["delivery"], "price": "$", "location": {"address1": "5300 Riverside Dr", "address2": "", "address3": "", "city": "Cleveland", "zip_code": "44135", "country": "US", "state": "OH", "display_address": ["5300 Riverside Dr", "Cleveland, OH 44135"]}, "phone": "+12162658420", "display_phone": "(216) 265-8420", "distance": 6962.447839318047}, {"id": "dbH98DP0M0MS3vGSKqYlsQ", "alias": "condado-tacos-crocker-park-westlake", "name": "Condado Tacos", "image_url": "https://s3-media4.fl.yelpcdn.com/bphoto/jXBUQcpbHSyfyE5umEDBrA/o.jpg", "is_closed": false, "url": "https://www.yelp.com/biz/condado-tacos-crocker-park-westlake?adjust_creative=XiulpY4J0xx_QhC29cyq-w&utm_campaign=yelp_api_v3&utm_medium=api_v3_business_search&utm_source=XiulpY4J0xx_QhC29cyq-w", "review_count": 162, "categories": [{"alias": "bars", "title": "Bars"}, {"alias": "tacos", "title": "Tacos"}], "rating": 3.5, "coordinates": {"latitude": 41.457191179262246, "longitude": -81.95200934725608}, "transactions": ["delivery", "pickup"], "price": "$$", "location": {"address1": "203 Market St", "address2": null, "address3": "", "city": "Westlake", "zip_code": "44145", "country": "US", "state": "OH", "display_address": ["203 Market St", "Westlake, OH 44145"]}, "phone": "+14404559595", "display_phone": "(440) 455-9595", "distance": 5162.032583117442}, {"id": "aCuCMYeoF7rB0U7Vee7lgw", "alias": "olde-wine-cellar-bistro-and-bottle-shop-olmsted-falls", "name": "Olde Wine Cellar Bistro & Bottle Shop", "image_url": "https://s3-media1.fl.yelpcdn.com/bphoto/7rz6-WPsMvg0OyLzZNA7bA/o.jpg", "is_closed": false, "url": "https://www.yelp.com/biz/olde-wine-cellar-bistro-and-bottle-shop-olmsted-falls?adjust_creative=XiulpY4J0xx_QhC29cyq-w&utm_campaign=yelp_api_v3&utm_medium=api_v3_business_search&utm_source=XiulpY4J0xx_QhC29cyq-w", "review_count": 27, "categories": [{"alias": "wine_bars", "title": "Wine Bars"}, {"alias": "tapasmallplates", "title": "Tapas/Small Plates"}], "rating": 4.5, "coordinates": {"latitude": 41.376812, "longitude": -81.901644}, "transactions": ["delivery"], "price": "$$", "location": {"address1": "7932 Main St", "address2": "", "address3": null, "city": "Olmsted Falls", "zip_code": "44138", "country": "US", "state": "OH", "display_address": ["7932 Main St", "Olmsted Falls, OH 44138"]}, "phone": "+14404271222", "display_phone": "(440) 427-1222", "distance": 4733.3181970553815}, {"id": "jZfNBQwt-FXxWcdKhKqaTw", "alias": "sakana-sushi-bar-and-lounge-rocky-river", "name": "Sakana Sushi Bar and Lounge", "image_url": "https://s3-media3.fl.yelpcdn.com/bphoto/TCLNwSadiUdRdI3czwXtRA/o.jpg", "is_closed": false, "url": "https://www.yelp.com/biz/sakana-sushi-bar-and-lounge-rocky-river?adjust_creative=XiulpY4J0xx_QhC29cyq-w&utm_campaign=yelp_api_v3&utm_medium=api_v3_business_search&utm_source=XiulpY4J0xx_QhC29cyq-w", "review_count": 86, "categories": [{"alias": "sushi", "title": "Sushi Bars"}, {"alias": "seafood", "title": "Seafood"}, {"alias": "noodles", "title": "Noodles"}], "rating": 4.5, "coordinates": {"latitude": 41.48243207320796, "longitude": -81.83675747583605}, "transactions": ["delivery", "pickup"], "price": "$$", "location": {"address1": "19300 Detroit Rd", "address2": "", "address3": null, "city": "Rocky River", "zip_code": "44116", "country": "US", "state": "OH", "display_address": ["19300 Detroit Rd", "Rocky River, OH 44116"]}, "phone": "+14408570700", "display_phone": "(440) 857-0700", "distance": 10229.770437271236}, {"id": "OaHJvi10dJbMIaQXg5e2Ag", "alias": "nam-wah-chinese-vietnamese-berea", "name": "Nam Wah Chinese Vietnamese", "image_url": "https://s3-media1.fl.yelpcdn.com/bphoto/e-mqtVXsiDUnkAUk6VjaVg/o.jpg", "is_closed": false, "url": "https://www.yelp.com/biz/nam-wah-chinese-vietnamese-berea?adjust_creative=XiulpY4J0xx_QhC29cyq-w&utm_campaign=yelp_api_v3&utm_medium=api_v3_business_search&utm_source=XiulpY4J0xx_QhC29cyq-w", "review_count": 185, "categories": [{"alias": "chinese", "title": "Chinese"}, {"alias": "vietnamese", "title": "Vietnamese"}], "rating": 4.5, "coordinates": {"latitude": 41.3722949, "longitude": -81.867235}, "transactions": ["delivery"], "price": "$$", "location": {"address1": "392 W Bagley Rd", "address2": "", "address3": "", "city": "Berea", "zip_code": "44017", "country": "US", "state": "OH", "display_address": ["392 W Bagley Rd", "Berea, OH 44017"]}, "phone": "+14402438181", "display_phone": "(440) 243-8181", "distance": 6617.287178712966}, {"id": "7H8Q6aTMDZIYEmhxsZMYfQ", "alias": "salad-kraze-avon-lake", "name": "Salad KraZe", "image_url": "https://s3-media2.fl.yelpcdn.com/bphoto/Rb6TlkcYTJ91QzuipP6t_w/o.jpg", "is_closed": false, "url": "https://www.yelp.com/biz/salad-kraze-avon-lake?adjust_creative=XiulpY4J0xx_QhC29cyq-w&utm_campaign=yelp_api_v3&utm_medium=api_v3_business_search&utm_source=XiulpY4J0xx_QhC29cyq-w", "review_count": 122, "categories": [{"alias": "salad", "title": "Salad"}, {"alias": "juicebars", "title": "Juice Bars & Smoothies"}, {"alias": "wraps", "title": "Wraps"}], "rating": 4.5, "coordinates": {"latitude": 41.48289, "longitude": -82.01982}, "transactions": ["delivery", "pickup"], "price": "$", "location": {"address1": "690 Avon Belden Rd", "address2": "", "address3": "", "city": "Avon Lake", "zip_code": "44012", "country": "US", "state": "OH", "display_address": ["690 Avon Belden Rd", "Avon Lake, OH 44012"]}, "phone": "+14409339123", "display_phone": "(440) 933-9123", "distance": 10978.1503075146}, {"id": "qO7dpBAVxbrR4GbtR2uCOw", "alias": "hecks-avon-avon", "name": "Hecks - Avon", "image_url": "https://s3-media4.fl.yelpcdn.com/bphoto/WdkPppdut8-u3eVgQpjveg/o.jpg", "is_closed": false, "url": "https://www.yelp.com/biz/hecks-avon-avon?adjust_creative=XiulpY4J0xx_QhC29cyq-w&utm_campaign=yelp_api_v3&utm_medium=api_v3_business_search&utm_source=XiulpY4J0xx_QhC29cyq-w", "review_count": 211, "categories": [{"alias": "newamerican", "title": "American (New)"}, {"alias": "breakfast_brunch", "title": "Breakfast & Brunch"}, {"alias": "cocktailbars", "title": "Cocktail Bars"}], "rating": 3.5, "coordinates": {"latitude": 41.45715918, "longitude": -82.01041052}, "transactions": ["delivery", "pickup"], "price": "$$", "location": {"address1": "35514 Detroit Rd", "address2": "", "address3": "", "city": "Avon", "zip_code": "44011", "country": "US", "state": "OH", "display_address": ["35514 Detroit Rd", "Avon, OH 44011"]}, "phone": "+14409373200", "display_phone": "(440) 937-3200", "distance": 8627.16337918895}, {"id": "FI7RsrAxVdiDEuSKlYql1w", "alias": "fiesta-jalapenos-ridgeville", "name": "Fiesta Jalapenos", "image_url": "https://s3-media1.fl.yelpcdn.com/bphoto/5xc1R1FWDTZOGEGxW0v4ng/o.jpg", "is_closed": false, "url": "https://www.yelp.com/biz/fiesta-jalapenos-ridgeville?adjust_creative=XiulpY4J0xx_QhC29cyq-w&utm_campaign=yelp_api_v3&utm_medium=api_v3_business_search&utm_source=XiulpY4J0xx_QhC29cyq-w", "review_count": 246, "categories": [{"alias": "mexican", "title": "Mexican"}], "rating": 4.0, "coordinates": {"latitude": 41.39963, "longitude": -81.989976}, "transactions": ["pickup", "delivery"], "price": "$$", "location": {"address1": "33725 Center Ridge Rd N", "address2": "", "address3": "", "city": "Ridgeville", "zip_code": "44039", "country": "US", "state": "OH", "display_address": ["33725 Center Ridge Rd N", "Ridgeville, OH 44039"]}, "phone": "+14403271431", "display_phone": "(440) 327-1431", "distance": 6770.627291081245}, {"id": "aCuCMYeoF7rB0U7Vee7lgw", "alias": "olde-wine-cellar-bistro-and-bottle-shop-olmsted-falls", "name": "Olde Wine Cellar Bistro & Bottle Shop", "image_url": "https://s3-media1.fl.yelpcdn.com/bphoto/7rz6-WPsMvg0OyLzZNA7bA/o.jpg", "is_closed": false, "url": "https://www.yelp.com/biz/olde-wine-cellar-bistro-and-bottle-shop-olmsted-falls?adjust_creative=XiulpY4J0xx_QhC29cyq-w&utm_campaign=yelp_api_v3&utm_medium=api_v3_business_search&utm_source=XiulpY4J0xx_QhC29cyq-w", "review_count": 27, "categories": [{"alias": "wine_bars", "title": "Wine Bars"}, {"alias": "tapasmallplates", "title": "Tapas/Small Plates"}], "rating": 4.5, "coordinates": {"latitude": 41.376812, "longitude": -81.901644}, "transactions": ["delivery"], "price": "$$", "location": {"address1": "7932 Main St", "address2": "", "address3": null, "city": "Olmsted Falls", "zip_code": "44138", "country": "US", "state": "OH", "display_address": ["7932 Main St", "Olmsted Falls, OH 44138"]}, "phone": "+14404271222", "display_phone": "(440) 427-1222", "distance": 4879.804177676055}, {"id": "Nqs4_gT6nKyeTOJ_rgu1mg", "alias": "frankies-italian-cuisine-north-olmsted", "name": "Frankie's Italian Cuisine", "image_url": "https://s3-media2.fl.yelpcdn.com/bphoto/a7uJ6E8aW-uT9XZQDrJkyA/o.jpg", "is_closed": false, "url": "https://www.yelp.com/biz/frankies-italian-cuisine-north-olmsted?adjust_creative=XiulpY4J0xx_QhC29cyq-w&utm_campaign=yelp_api_v3&utm_medium=api_v3_business_search&utm_source=XiulpY4J0xx_QhC29cyq-w", "review_count": 183, "categories": [{"alias": "italian", "title": "Italian"}, {"alias": "pizza", "title": "Pizza"}], "rating": 3.5, "coordinates": {"latitude": 41.42209, "longitude": -81.90113}, "transactions": ["delivery"], "price": "$$", "location": {"address1": "4641 Great Northern Blvd", "address2": null, "address3": null, "city": "North Olmsted", "zip_code": "44070", "country": "US", "state": "OH", "display_address": ["4641 Great Northern Blvd", "North Olmsted, OH 44070"]}, "phone": "+14407348646", "display_phone": "(440) 734-8646", "distance": 1059.8034380375557}, {"id": "3MGtGtuRTtWaoZx-7pwC_g", "alias": "yogurt-vi-north-olmsted", "name": "Yogurt Vi", "image_url": "https://s3-media4.fl.yelpcdn.com/bphoto/ihd5XHVEaHxVfCtSiTiqXg/o.jpg", "is_closed": false, "url": "https://www.yelp.com/biz/yogurt-vi-north-olmsted?adjust_creative=XiulpY4J0xx_QhC29cyq-w&utm_campaign=yelp_api_v3&utm_medium=api_v3_business_search&utm_source=XiulpY4J0xx_QhC29cyq-w", "review_count": 15, "categories": [{"alias": "icecream", "title": "Ice Cream & Frozen Yogurt"}], "rating": 3.5, "coordinates": {"latitude": 41.4186859, "longitude": -81.9096756}, "transactions": [], "price": "$", "location": {"address1": "148 Great Northern Mall", "address2": null, "address3": "", "city": "North Olmsted", "zip_code": "44070", "country": "US", "state": "OH", "display_address": ["148 Great Northern Mall", "North Olmsted, OH 44070"]}, "phone": "+14407161002", "display_phone": "(440) 716-1002", "distance": 962.9535391005022}, {"id": "EiVYrgOqG3Y9Ef9_ApZi4A", "alias": "pasta-co-op-westlake-2", "name": "Pasta Co-Op", "image_url": "https://s3-media1.fl.yelpcdn.com/bphoto/70DP_dqDra732glwUKR7Hg/o.jpg", "is_closed": false, "url": "https://www.yelp.com/biz/pasta-co-op-westlake-2?adjust_creative=XiulpY4J0xx_QhC29cyq-w&utm_campaign=yelp_api_v3&utm_medium=api_v3_business_search&utm_source=XiulpY4J0xx_QhC29cyq-w", "review_count": 59, "categories": [{"alias": "italian", "title": "Italian"}], "rating": 4.5, "coordinates": {"latitude": 41.45969461717659, "longitude": -81.95180109608287}, "transactions": ["pickup", "delivery"], "price": "$", "location": {"address1": "187 Crocker Park Blvd", "address2": "", "address3": "", "city": "Westlake", "zip_code": "44145", "country": "US", "state": "OH", "display_address": ["187 Crocker Park Blvd", "Westlake, OH 44145"]}, "phone": "+14408922667", "display_phone": "(440) 892-2667", "distance": 5471.058638961575}, {"id": "GWON0FVkrHme3taS3ZR5qw", "alias": "the-great-greek-mediterranean-grill-rocky-river", "name": "The Great Greek Mediterranean Grill", "image_url": "https://s3-media3.fl.yelpcdn.com/bphoto/LxWN3s2ipDiliKFCL_LiHw/o.jpg", "is_closed": false, "url": "https://www.yelp.com/biz/the-great-greek-mediterranean-grill-rocky-river?adjust_creative=XiulpY4J0xx_QhC29cyq-w&utm_campaign=yelp_api_v3&utm_medium=api_v3_business_search&utm_source=XiulpY4J0xx_QhC29cyq-w", "review_count": 92, "categories": [{"alias": "greek", "title": "Greek"}, {"alias": "mediterranean", "title": "Mediterranean"}, {"alias": "mideastern", "title": "Middle Eastern"}], "rating": 4.5, "coordinates": {"latitude": 41.45964967, "longitude": -81.85839817}, "transactions": ["delivery"], "location": {"address1": "21605 Center Ridge Rd", "address2": "", "address3": null, "city": "Rocky River", "zip_code": "44116", "country": "US", "state": "OH", "display_address": ["21605 Center Ridge Rd", "Rocky River, OH 44116"]}, "phone": "+12167124350", "display_phone": "(216) 712-4350", "distance": 6362.280706057353}, {"id": "sWucpMb_MDdqAthWFFisow", "alias": "joes-deli-rocky-river", "name": "Joe's Deli", "image_url": "https://s3-media2.fl.yelpcdn.com/bphoto/k9B8tFb-x4H0mQ41Q23tWQ/o.jpg", "is_closed": false, "url": "https://www.yelp.com/biz/joes-deli-rocky-river?adjust_creative=XiulpY4J0xx_QhC29cyq-w&utm_campaign=yelp_api_v3&utm_medium=api_v3_business_search&utm_source=XiulpY4J0xx_QhC29cyq-w", "review_count": 396, "categories": [{"alias": "delis", "title": "Delis"}, {"alias": "newamerican", "title": "American (New)"}, {"alias": "lebanese", "title": "Lebanese"}], "rating": 4.0, "coordinates": {"latitude": 41.4711936929179, "longitude": -81.8358972758574}, "transactions": ["delivery"], "price": "$$", "location": {"address1": "19215 Hilliard Blvd", "address2": "", "address3": "", "city": "Rocky River", "zip_code": "44116", "country": "US", "state": "OH", "display_address": ["19215 Hilliard Blvd", "Rocky River, OH 44116"]}, "phone": "+14403337890", "display_phone": "(440) 333-7890", "distance": 8622.896456137285}, {"id": "kkNWzhSpAjxm0zIxol3IzQ", "alias": "biryani-hut-express-westlake-3", "name": "Biryani Hut Express", "image_url": "https://s3-media4.fl.yelpcdn.com/bphoto/iMIXqPKFBraaV4NsN5Oxmg/o.jpg", "is_closed": false, "url": "https://www.yelp.com/biz/biryani-hut-express-westlake-3?adjust_creative=XiulpY4J0xx_QhC29cyq-w&utm_campaign=yelp_api_v3&utm_medium=api_v3_business_search&utm_source=XiulpY4J0xx_QhC29cyq-w", "review_count": 145, "categories": [{"alias": "indpak", "title": "Indian"}], "rating": 4.5, "coordinates": {"latitude": 41.45105, "longitude": -81.91472}, "transactions": ["pickup", "delivery"], "price": "$$", "location": {"address1": "26569 Center Ridge Rd", "address2": null, "address3": "", "city": "Westlake", "zip_code": "44145", "country": "US", "state": "OH", "display_address": ["26569 Center Ridge Rd", "Westlake, OH 44145"]}, "phone": "+14404714607", "display_phone": "(440) 471-4607", "distance": 3468.917466239963}, {"id": "X2FAEOuFtWq4TGmN8NEmjQ", "alias": "the-berea-depot-berea-2", "name": "The Berea Depot", "image_url": "https://s3-media2.fl.yelpcdn.com/bphoto/PvFMyeUX7JslENLXAkQSMA/o.jpg", "is_closed": false, "url": "https://www.yelp.com/biz/the-berea-depot-berea-2?adjust_creative=XiulpY4J0xx_QhC29cyq-w&utm_campaign=yelp_api_v3&utm_medium=api_v3_business_search&utm_source=XiulpY4J0xx_QhC29cyq-w", "review_count": 155, "categories": [{"alias": "newamerican", "title": "American (New)"}, {"alias": "sandwiches", "title": "Sandwiches"}, {"alias": "burgers", "title": "Burgers"}], "rating": 3.5, "coordinates": {"latitude": 41.3809424635864, "longitude": -81.8544956669211}, "transactions": ["pickup", "delivery"], "price": "$$", "location": {"address1": "30 Depot St", "address2": "", "address3": null, "city": "Berea", "zip_code": "44017", "country": "US", "state": "OH", "display_address": ["30 Depot St", "Berea, OH 44017"]}, "phone": "+14402436169", "display_phone": "(440) 243-6169", "distance": 6541.6453885572855}, {"id": "OaHJvi10dJbMIaQXg5e2Ag", "alias": "nam-wah-chinese-vietnamese-berea", "name": "Nam Wah Chinese Vietnamese", "image_url": "https://s3-media1.fl.yelpcdn.com/bphoto/e-mqtVXsiDUnkAUk6VjaVg/o.jpg", "is_closed": false, "url": "https://www.yelp.com/biz/nam-wah-chinese-vietnamese-berea?adjust_creative=XiulpY4J0xx_QhC29cyq-w&utm_campaign=yelp_api_v3&utm_medium=api_v3_business_search&utm_source=XiulpY4J0xx_QhC29cyq-w", "review_count": 185, "categories": [{"alias": "chinese", "title": "Chinese"}, {"alias": "vietnamese", "title": "Vietnamese"}], "rating": 4.5, "coordinates": {"latitude": 41.3722949, "longitude": -81.867235}, "transactions": ["delivery"], "price": "$$", "location": {"address1": "392 W Bagley Rd", "address2": "", "address3": "", "city": "Berea", "zip_code": "44017", "country": "US", "state": "OH", "display_address": ["392 W Bagley Rd", "Berea, OH 44017"]}, "phone": "+14402438181", "display_phone": "(440) 243-8181", "distance": 6417.374556689938}, {"id": "PUos6w1aB2GX6Qakf9616w", "alias": "beardens-rocky-river", "name": "Bearden's", "image_url": "https://s3-media2.fl.yelpcdn.com/bphoto/E4K80qk8eytgxf1uda4kdA/o.jpg", "is_closed": false, "url": "https://www.yelp.com/biz/beardens-rocky-river?adjust_creative=XiulpY4J0xx_QhC29cyq-w&utm_campaign=yelp_api_v3&utm_medium=api_v3_business_search&utm_source=XiulpY4J0xx_QhC29cyq-w", "review_count": 153, "categories": [{"alias": "burgers", "title": "Burgers"}, {"alias": "hotdogs", "title": "Fast Food"}, {"alias": "salad", "title": "Salad"}], "rating": 3.5, "coordinates": {"latitude": 41.48352, "longitude": -81.84271}, "transactions": ["pickup", "delivery"], "price": "$", "location": {"address1": "19985 Lake Rd", "address2": "", "address3": "", "city": "Rocky River", "zip_code": "44116", "country": "US", "state": "OH", "display_address": ["19985 Lake Rd", "Rocky River, OH 44116"]}, "phone": "+14403317850", "display_phone": "(440) 331-7850", "distance": 9212.772030270557}, {"id": "WSiJfJczQ0orKOY4YBJZNQ", "alias": "yuzu-king-japanese-cuisine-westlake", "name": "Yuzu King Japanese Cuisine", "image_url": "https://s3-media1.fl.yelpcdn.com/bphoto/YeF0Hhjs2LuNWwryOwQiiA/o.jpg", "is_closed": false, "url": "https://www.yelp.com/biz/yuzu-king-japanese-cuisine-westlake?adjust_creative=XiulpY4J0xx_QhC29cyq-w&utm_campaign=yelp_api_v3&utm_medium=api_v3_business_search&utm_source=XiulpY4J0xx_QhC29cyq-w", "review_count": 64, "categories": [{"alias": "japanese", "title": "Japanese"}, {"alias": "sushi", "title": "Sushi Bars"}, {"alias": "asianfusion", "title": "Asian Fusion"}], "rating": 5.0, "coordinates": {"latitude": 41.466496, "longitude": -81.9236206}, "transactions": ["pickup", "delivery"], "location": {"address1": "27333 Detroit Rd", "address2": null, "address3": "", "city": "Westlake", "zip_code": "44145", "country": "US", "state": "OH", "display_address": ["27333 Detroit Rd", "Westlake, OH 44145"]}, "phone": "+14406171010", "display_phone": "(440) 617-1010", "distance": 5261.472570389387}, {"id": "rUDt4_PHPhQb_NYu5gU5Nw", "alias": "omars-pizza-and-mediterranean-grill-fairview-park-2", "name": "Omar's Pizza & Mediterranean Grill", "image_url": "https://s3-media3.fl.yelpcdn.com/bphoto/W_ioaf3AzA_zXR370UQUDw/o.jpg", "is_closed": false, "url": "https://www.yelp.com/biz/omars-pizza-and-mediterranean-grill-fairview-park-2?adjust_creative=XiulpY4J0xx_QhC29cyq-w&utm_campaign=yelp_api_v3&utm_medium=api_v3_business_search&utm_source=XiulpY4J0xx_QhC29cyq-w", "review_count": 41, "categories": [{"alias": "mediterranean", "title": "Mediterranean"}, {"alias": "pizza", "title": "Pizza"}, {"alias": "breakfast_brunch", "title": "Breakfast & Brunch"}], "rating": 4.0, "coordinates": {"latitude": 41.4408383, "longitude": -81.8667161}, "transactions": ["pickup", "delivery"], "location": {"address1": "22250 Lorain Rd", "address2": null, "address3": "", "city": "Fairview Park", "zip_code": "44126", "country": "US", "state": "OH", "display_address": ["22250 Lorain Rd", "Fairview Park, OH 44126"]}, "phone": "+14405881011", "display_phone": "(440) 588-1011", "distance": 4538.171727311837}, {"id": "wpDxUJ8hs3MUEH17vTR-HQ", "alias": "bar-symon-cleveland-5", "name": "Bar Symon", "image_url": "https://s3-media1.fl.yelpcdn.com/bphoto/aVkChIzUG4ASs0ALeGYSqQ/o.jpg", "is_closed": false, "url": "https://www.yelp.com/biz/bar-symon-cleveland-5?adjust_creative=XiulpY4J0xx_QhC29cyq-w&utm_campaign=yelp_api_v3&utm_medium=api_v3_business_search&utm_source=XiulpY4J0xx_QhC29cyq-w", "review_count": 169, "categories": [{"alias": "tradamerican", "title": "American (Traditional)"}, {"alias": "bars", "title": "Bars"}], "rating": 3.5, "coordinates": {"latitude": 41.40931, "longitude": -81.83957}, "transactions": [], "price": "$$", "location": {"address1": "5300 Riverside Dr", "address2": "", "address3": null, "city": "Cleveland", "zip_code": "44135", "country": "US", "state": "OH", "display_address": ["5300 Riverside Dr", "Cleveland, OH 44135"]}, "phone": "+12167621075", "display_phone": "(216) 762-1075", "distance": 6264.328146464502}, {"id": "VUe8lHrZjlRwToi22UIkmw", "alias": "wild-mango-westlake", "name": "Wild Mango", "image_url": "https://s3-media2.fl.yelpcdn.com/bphoto/ndxMmQHkgfPSff6q5CnwQg/o.jpg", "is_closed": false, "url": "https://www.yelp.com/biz/wild-mango-westlake?adjust_creative=XiulpY4J0xx_QhC29cyq-w&utm_campaign=yelp_api_v3&utm_medium=api_v3_business_search&utm_source=XiulpY4J0xx_QhC29cyq-w", "review_count": 48, "categories": [{"alias": "newamerican", "title": "American (New)"}, {"alias": "asianfusion", "title": "Asian Fusion"}, {"alias": "bbq", "title": "Barbeque"}], "rating": 4.0, "coordinates": {"latitude": 41.45949, "longitude": -81.9507}, "transactions": [], "location": {"address1": "139 Crocker Park Blvd", "address2": "", "address3": null, "city": "Westlake", "zip_code": "44145", "country": "US", "state": "OH", "display_address": ["139 Crocker Park Blvd", "Westlake, OH 44145"]}, "phone": "+14409791888", "display_phone": "(440) 979-1888", "distance": 5401.6496496305945}, {"id": "8x2hxb4nnnzfFvg1d8RmHA", "alias": "brusters-real-ice-cream-north-olmsted", "name": "Bruster's Real Ice Cream", "image_url": "https://s3-media1.fl.yelpcdn.com/bphoto/NXpNY-9rw-bnB1lL_JVH-w/o.jpg", "is_closed": false, "url": "https://www.yelp.com/biz/brusters-real-ice-cream-north-olmsted?adjust_creative=XiulpY4J0xx_QhC29cyq-w&utm_campaign=yelp_api_v3&utm_medium=api_v3_business_search&utm_source=XiulpY4J0xx_QhC29cyq-w", "review_count": 25, "categories": [{"alias": "icecream", "title": "Ice Cream & Frozen Yogurt"}, {"alias": "customcakes", "title": "Custom Cakes"}, {"alias": "juicebars", "title": "Juice Bars & Smoothies"}], "rating": 4.5, "coordinates": {"latitude": 41.41657612304524, "longitude": -81.92136209491662}, "transactions": [], "location": {"address1": "27045 Lorain Rd", "address2": null, "address3": null, "city": "North Olmsted", "zip_code": "44070", "country": "US", "state": "OH", "display_address": ["27045 Lorain Rd", "North Olmsted, OH 44070"]}, "phone": "+14404714646", "display_phone": "(440) 471-4646", "distance": 756.5925045690881}, {"id": "9rT5kZY-RLDQTeOkmojRNA", "alias": "earth-fare-fairview-park", "name": "Earth Fare", "image_url": "https://s3-media2.fl.yelpcdn.com/bphoto/rsl58VFKCHPx4z5IzFh-bw/o.jpg", "is_closed": false, "url": "https://www.yelp.com/biz/earth-fare-fairview-park?adjust_creative=XiulpY4J0xx_QhC29cyq-w&utm_campaign=yelp_api_v3&utm_medium=api_v3_business_search&utm_source=XiulpY4J0xx_QhC29cyq-w", "review_count": 81, "categories": [{"alias": "grocery", "title": "Grocery"}, {"alias": "healthmarkets", "title": "Health Markets"}, {"alias": "markets", "title": "Fruits & Veggies"}], "rating": 3.5, "coordinates": {"latitude": 41.45989493392923, "longitude": -81.85143001748557}, "transactions": [], "price": "$$$", "location": {"address1": "3450 Westgate", "address2": "", "address3": "", "city": "Fairview Park", "zip_code": "44126", "country": "US", "state": "OH", "display_address": ["3450 Westgate", "Fairview Park, OH 44126"]}, "phone": "+14403562262", "display_phone": "(440) 356-2262", "distance": 6821.606836307185}, {"id": "VZiZbY93wwLRv8DIRTkjPQ", "alias": "mootown-creamery-berea-4", "name": "Mootown Creamery", "image_url": "https://s3-media3.fl.yelpcdn.com/bphoto/-k0_uorC8HbGYspHQM94hQ/o.jpg", "is_closed": false, "url": "https://www.yelp.com/biz/mootown-creamery-berea-4?adjust_creative=XiulpY4J0xx_QhC29cyq-w&utm_campaign=yelp_api_v3&utm_medium=api_v3_business_search&utm_source=XiulpY4J0xx_QhC29cyq-w", "review_count": 37, "categories": [{"alias": "desserts", "title": "Desserts"}, {"alias": "icecream", "title": "Ice Cream & Frozen Yogurt"}], "rating": 4.0, "coordinates": {"latitude": 41.3715199, "longitude": -81.86897}, "transactions": ["pickup", "delivery"], "price": "$", "location": {"address1": "437 W Bagley Rd", "address2": null, "address3": null, "city": "Berea", "zip_code": "44017", "country": "US", "state": "OH", "display_address": ["437 W Bagley Rd", "Berea, OH 44017"]}, "phone": "+14402609930", "display_phone": "(440) 260-9930", "distance": 6527.494210155339}, {"id": "owPDL_QmvgXa0kwN-i3OkQ", "alias": "gourmet-guy-cafe-rocky-river", "name": "Gourmet Guy Cafe ", "image_url": "https://s3-media1.fl.yelpcdn.com/bphoto/EiDAEJIbhLm6_a2bZlNpBw/o.jpg", "is_closed": false, "url": "https://www.yelp.com/biz/gourmet-guy-cafe-rocky-river?adjust_creative=XiulpY4J0xx_QhC29cyq-w&utm_campaign=yelp_api_v3&utm_medium=api_v3_business_search&utm_source=XiulpY4J0xx_QhC29cyq-w", "review_count": 17, "categories": [{"alias": "cafes", "title": "Cafes"}], "rating": 4.5, "coordinates": {"latitude": 41.4833012941786, "longitude": -81.8452246114611}, "transactions": ["pickup", "delivery"], "location": {"address1": "20253 Lake Rd", "address2": "", "address3": null, "city": "Rocky River", "zip_code": "44116", "country": "US", "state": "OH", "display_address": ["20253 Lake Rd", "Rocky River, OH 44116"]}, "phone": "+14407994083", "display_phone": "(440) 799-4083", "distance": 9061.451700112482}, {"id": "Fkckopw1GL4cQzh9Buv6DA", "alias": "panera-bread-north-olmsted", "name": "Panera Bread", "image_url": "https://s3-media2.fl.yelpcdn.com/bphoto/aPxgZ-U582ii1Okf77grGA/o.jpg", "is_closed": false, "url": "https://www.yelp.com/biz/panera-bread-north-olmsted?adjust_creative=XiulpY4J0xx_QhC29cyq-w&utm_campaign=yelp_api_v3&utm_medium=api_v3_business_search&utm_source=XiulpY4J0xx_QhC29cyq-w", "review_count": 34, "categories": [{"alias": "sandwiches", "title": "Sandwiches"}, {"alias": "salad", "title": "Salad"}, {"alias": "soup", "title": "Soup"}], "rating": 2.5, "coordinates": {"latitude": 41.41836, "longitude": -81.91169}, "transactions": ["pickup", "delivery"], "price": "$", "location": {"address1": "26086 Brookpark Road", "address2": "", "address3": "", "city": "North Olmsted", "zip_code": "44070", "country": "US", "state": "OH", "display_address": ["26086 Brookpark Road", "North Olmsted, OH 44070"]}, "phone": "+14408019023", "display_phone": "(440) 801-9023", "distance": 213.00634039006493}, {"id": "Pjk8-Y4KWlUpwkU7HdolUg", "alias": "blue-sushi-sake-grill-westlake-4", "name": "Blue Sushi Sake Grill", "image_url": "https://s3-media3.fl.yelpcdn.com/bphoto/QaStXfgXLQrnUp1ZR96WgQ/o.jpg", "is_closed": false, "url": "https://www.yelp.com/biz/blue-sushi-sake-grill-westlake-4?adjust_creative=XiulpY4J0xx_QhC29cyq-w&utm_campaign=yelp_api_v3&utm_medium=api_v3_business_search&utm_source=XiulpY4J0xx_QhC29cyq-w", "review_count": 282, "categories": [{"alias": "sushi", "title": "Sushi Bars"}, {"alias": "japanese", "title": "Japanese"}, {"alias": "cocktailbars", "title": "Cocktail Bars"}], "rating": 4.5, "coordinates": {"latitude": 41.461735, "longitude": -81.951228}, "transactions": ["delivery", "pickup"], "price": "$$", "location": {"address1": "2000 Crocker Rd", "address2": "", "address3": null, "city": "Westlake", "zip_code": "44145", "country": "US", "state": "OH", "display_address": ["2000 Crocker Rd", "Westlake, OH 44145"]}, "phone": "+14403284500", "display_phone": "(440) 328-4500", "distance": 5582.103107831138}, {"id": "ZLanOvPw7BscWDo0yC8Ncg", "alias": "aladdins-eatery-middleburg-heights-middleburg-heights", "name": "Aladdin's Eatery - Middleburg Heights", "image_url": "https://s3-media4.fl.yelpcdn.com/bphoto/bQsR0e1HjqLqMiRIDoG6JA/o.jpg", "is_closed": false, "url": "https://www.yelp.com/biz/aladdins-eatery-middleburg-heights-middleburg-heights?adjust_creative=XiulpY4J0xx_QhC29cyq-w&utm_campaign=yelp_api_v3&utm_medium=api_v3_business_search&utm_source=XiulpY4J0xx_QhC29cyq-w", "review_count": 117, "categories": [{"alias": "mideastern", "title": "Middle Eastern"}, {"alias": "mediterranean", "title": "Mediterranean"}], "rating": 4.5, "coordinates": {"latitude": 41.373934, "longitude": -81.830332}, "transactions": ["delivery", "pickup"], "price": "$$", "location": {"address1": "18334 E Bagley Rd", "address2": "", "address3": "", "city": "Middleburg Heights", "zip_code": "44130", "country": "US", "state": "OH", "display_address": ["18334 E Bagley Rd", "Middleburg Heights, OH 44130"]}, "phone": "+14402430800", "display_phone": "(440) 243-0800", "distance": 9011.849967410757}, {"id": "rUDt4_PHPhQb_NYu5gU5Nw", "alias": "omars-pizza-and-mediterranean-grill-fairview-park-2", "name": "Omar's Pizza & Mediterranean Grill", "image_url": "https://s3-media3.fl.yelpcdn.com/bphoto/W_ioaf3AzA_zXR370UQUDw/o.jpg", "is_closed": false, "url": "https://www.yelp.com/biz/omars-pizza-and-mediterranean-grill-fairview-park-2?adjust_creative=XiulpY4J0xx_QhC29cyq-w&utm_campaign=yelp_api_v3&utm_medium=api_v3_business_search&utm_source=XiulpY4J0xx_QhC29cyq-w", "review_count": 41, "categories": [{"alias": "mediterranean", "title": "Mediterranean"}, {"alias": "pizza", "title": "Pizza"}, {"alias": "breakfast_brunch", "title": "Breakfast & Brunch"}], "rating": 4.0, "coordinates": {"latitude": 41.4408383, "longitude": -81.8667161}, "transactions": ["delivery", "pickup"], "location": {"address1": "22250 Lorain Rd", "address2": null, "address3": "", "city": "Fairview Park", "zip_code": "44126", "country": "US", "state": "OH", "display_address": ["22250 Lorain Rd", "Fairview Park, OH 44126"]}, "phone": "+14405881011", "display_phone": "(440) 588-1011", "distance": 5367.925462576481}, {"id": "cOY6ipigtTXdcmmmiFiniA", "alias": "perk-cup-cafe-berea", "name": "Perk-Cup! Cafe", "image_url": "https://s3-media4.fl.yelpcdn.com/bphoto/Mh4urpul5l2dHjBIqFB4pw/o.jpg", "is_closed": false, "url": "https://www.yelp.com/biz/perk-cup-cafe-berea?adjust_creative=XiulpY4J0xx_QhC29cyq-w&utm_campaign=yelp_api_v3&utm_medium=api_v3_business_search&utm_source=XiulpY4J0xx_QhC29cyq-w", "review_count": 151, "categories": [{"alias": "breakfast_brunch", "title": "Breakfast & Brunch"}, {"alias": "cafes", "title": "Cafes"}], "rating": 3.5, "coordinates": {"latitude": 41.3713181231328, "longitude": -81.8746671985901}, "transactions": ["delivery"], "price": "$", "location": {"address1": "561 W Bagley Rd", "address2": "", "address3": "", "city": "Berea", "zip_code": "44017", "country": "US", "state": "OH", "display_address": ["561 W Bagley Rd", "Berea, OH 44017"]}, "phone": "+14402342233", "display_phone": "(440) 234-2233", "distance": 6401.832230866444}, {"id": "Nqs4_gT6nKyeTOJ_rgu1mg", "alias": "frankies-italian-cuisine-north-olmsted", "name": "Frankie's Italian Cuisine", "image_url": "https://s3-media2.fl.yelpcdn.com/bphoto/a7uJ6E8aW-uT9XZQDrJkyA/o.jpg", "is_closed": false, "url": "https://www.yelp.com/biz/frankies-italian-cuisine-north-olmsted?adjust_creative=XiulpY4J0xx_QhC29cyq-w&utm_campaign=yelp_api_v3&utm_medium=api_v3_business_search&utm_source=XiulpY4J0xx_QhC29cyq-w", "review_count": 183, "categories": [{"alias": "italian", "title": "Italian"}, {"alias": "pizza", "title": "Pizza"}], "rating": 3.5, "coordinates": {"latitude": 41.42209, "longitude": -81.90113}, "transactions": ["delivery"], "price": "$$", "location": {"address1": "4641 Great Northern Blvd", "address2": null, "address3": null, "city": "North Olmsted", "zip_code": "44070", "country": "US", "state": "OH", "display_address": ["4641 Great Northern Blvd", "North Olmsted, OH 44070"]}, "phone": "+14407348646", "display_phone": "(440) 734-8646", "distance": 1881.4102200572393}, {"id": "-WcFDzr3r7j67VzHhh-AdQ", "alias": "swensons-drive-in-avon-3", "name": "Swensons Drive-In", "image_url": "https://s3-media3.fl.yelpcdn.com/bphoto/qa0G9npWGquGpIw8eXpbVg/o.jpg", "is_closed": false, "url": "https://www.yelp.com/biz/swensons-drive-in-avon-3?adjust_creative=XiulpY4J0xx_QhC29cyq-w&utm_campaign=yelp_api_v3&utm_medium=api_v3_business_search&utm_source=XiulpY4J0xx_QhC29cyq-w", "review_count": 72, "categories": [{"alias": "burgers", "title": "Burgers"}, {"alias": "hotdogs", "title": "Fast Food"}, {"alias": "sandwiches", "title": "Sandwiches"}], "rating": 4.0, "coordinates": {"latitude": 41.469497111304, "longitude": -82.0211996209148}, "transactions": ["delivery"], "price": "$", "location": {"address1": "36041 Main St", "address2": "", "address3": null, "city": "Avon", "zip_code": "44011", "country": "US", "state": "OH", "display_address": ["36041 Main St", "Avon, OH 44011"]}, "phone": "+14404931934", "display_phone": "(440) 493-1934", "distance": 10135.850719994054}, {"id": "d7MCQvcz014M-SZh_txO4Q", "alias": "speedway-north-olmsted-3", "name": "Speedway", "image_url": "https://s3-media2.fl.yelpcdn.com/bphoto/NdOXV_WNzYyD6B7ZtUc1gg/o.jpg", "is_closed": false, "url": "https://www.yelp.com/biz/speedway-north-olmsted-3?adjust_creative=XiulpY4J0xx_QhC29cyq-w&utm_campaign=yelp_api_v3&utm_medium=api_v3_business_search&utm_source=XiulpY4J0xx_QhC29cyq-w", "review_count": 2, "categories": [{"alias": "servicestations", "title": "Gas Stations"}, {"alias": "convenience", "title": "Convenience Stores"}, {"alias": "coffee", "title": "Coffee & Tea"}], "rating": 4.0, "coordinates": {"latitude": 41.43011, "longitude": -81.88867}, "transactions": ["delivery", "pickup"], "location": {"address1": "24046 Lorain Road", "address2": "", "address3": "", "city": "North Olmsted", "zip_code": "44070", "country": "US", "state": "OH", "display_address": ["24046 Lorain Road", "North Olmsted, OH 44070"]}, "phone": "+14407791638", "display_phone": "(440) 779-1638", "distance": 3185.289710131324}, {"id": "VZiZbY93wwLRv8DIRTkjPQ", "alias": "mootown-creamery-berea-4", "name": "Mootown Creamery", "image_url": "https://s3-media3.fl.yelpcdn.com/bphoto/-k0_uorC8HbGYspHQM94hQ/o.jpg", "is_closed": false, "url": "https://www.yelp.com/biz/mootown-creamery-berea-4?adjust_creative=XiulpY4J0xx_QhC29cyq-w&utm_campaign=yelp_api_v3&utm_medium=api_v3_business_search&utm_source=XiulpY4J0xx_QhC29cyq-w", "review_count": 37, "categories": [{"alias": "desserts", "title": "Desserts"}, {"alias": "icecream", "title": "Ice Cream & Frozen Yogurt"}], "rating": 4.0, "coordinates": {"latitude": 41.3715199, "longitude": -81.86897}, "transactions": ["delivery", "pickup"], "price": "$", "location": {"address1": "437 W Bagley Rd", "address2": null, "address3": null, "city": "Berea", "zip_code": "44017", "country": "US", "state": "OH", "display_address": ["437 W Bagley Rd", "Berea, OH 44017"]}, "phone": "+14402609930", "display_phone": "(440) 260-9930", "distance": 6694.9751539386925}, {"id": "L2xlsv3K3nXtpGlUhtoUOw", "alias": "the-aviator-event-center-and-pub-cleveland", "name": "The Aviator Event Center & Pub", "image_url": "https://s3-media3.fl.yelpcdn.com/bphoto/nbPBXmjjgRHS9Zk72mtLOQ/o.jpg", "is_closed": false, "url": "https://www.yelp.com/biz/the-aviator-event-center-and-pub-cleveland?adjust_creative=XiulpY4J0xx_QhC29cyq-w&utm_campaign=yelp_api_v3&utm_medium=api_v3_business_search&utm_source=XiulpY4J0xx_QhC29cyq-w", "review_count": 71, "categories": [{"alias": "venues", "title": "Venues & Event Spaces"}, {"alias": "tradamerican", "title": "American (Traditional)"}, {"alias": "pubs", "title": "Pubs"}], "rating": 4.0, "coordinates": {"latitude": 41.41912, "longitude": -81.84984}, "transactions": [], "location": {"address1": "20920 Brookpark Rd", "address2": null, "address3": "", "city": "Cleveland", "zip_code": "44135", "country": "US", "state": "OH", "display_address": ["20920 Brookpark Rd", "Cleveland, OH 44135"]}, "phone": "+12167705300", "display_phone": "(216) 770-5300", "distance": 6239.218544508914}, {"id": "0I0yATfnNQJB-A-IPGgqDA", "alias": "aristo-bistro-westlake-3", "name": "Aristo Bistro", "image_url": "https://s3-media2.fl.yelpcdn.com/bphoto/muWlSoW_-eZ87bRNfHOkIw/o.jpg", "is_closed": false, "url": "https://www.yelp.com/biz/aristo-bistro-westlake-3?adjust_creative=XiulpY4J0xx_QhC29cyq-w&utm_campaign=yelp_api_v3&utm_medium=api_v3_business_search&utm_source=XiulpY4J0xx_QhC29cyq-w", "review_count": 113, "categories": [{"alias": "chinese", "title": "Chinese"}, {"alias": "asianfusion", "title": "Asian Fusion"}, {"alias": "seafood", "title": "Seafood"}], "rating": 4.5, "coordinates": {"latitude": 41.4571533123911, "longitude": -81.8984294015866}, "transactions": ["delivery"], "price": "$$", "location": {"address1": "25124 Center Ridge Rd", "address2": "", "address3": null, "city": "Westlake", "zip_code": "44145", "country": "US", "state": "OH", "display_address": ["25124 Center Ridge Rd", "Westlake, OH 44145"]}, "phone": "+14404559900", "display_phone": "(440) 455-9900", "distance": 4943.296575222611}, {"id": "StEYdKMtH2J8jxI1lDpWfg", "alias": "hot-chicken-takeover-westlake-2", "name": "Hot Chicken Takeover", "image_url": "https://s3-media2.fl.yelpcdn.com/bphoto/cBNfxu3KGn2DZXDB1mp4vw/o.jpg", "is_closed": false, "url": "https://www.yelp.com/biz/hot-chicken-takeover-westlake-2?adjust_creative=XiulpY4J0xx_QhC29cyq-w&utm_campaign=yelp_api_v3&utm_medium=api_v3_business_search&utm_source=XiulpY4J0xx_QhC29cyq-w", "review_count": 73, "categories": [{"alias": "chickenshop", "title": "Chicken Shop"}, {"alias": "southern", "title": "Southern"}], "rating": 4.0, "coordinates": {"latitude": 41.456824, "longitude": -81.95192}, "transactions": ["delivery"], "price": "$$", "location": {"address1": "242 Main St", "address2": "", "address3": "", "city": "Westlake", "zip_code": "44145", "country": "US", "state": "OH", "display_address": ["242 Main St", "Westlake, OH 44145"]}, "phone": "+14406381117", "display_phone": "(440) 638-1117", "distance": 5121.31256553442}, {"id": "PHceo653FqAeQHHrvvaMjA", "alias": "rosewood-grill-westlake-westlake", "name": "Rosewood Grill- Westlake", "image_url": "https://s3-media2.fl.yelpcdn.com/bphoto/5KRfz4S9eZ0UEHalSuotwQ/o.jpg", "is_closed": false, "url": "https://www.yelp.com/biz/rosewood-grill-westlake-westlake?adjust_creative=XiulpY4J0xx_QhC29cyq-w&utm_campaign=yelp_api_v3&utm_medium=api_v3_business_search&utm_source=XiulpY4J0xx_QhC29cyq-w", "review_count": 136, "categories": [{"alias": "newamerican", "title": "American (New)"}], "rating": 3.5, "coordinates": {"latitude": 41.4600382, "longitude": -81.9498996}, "transactions": ["delivery"], "price": "$$", "location": {"address1": "2033 Crocker Rd", "address2": "", "address3": "", "city": "Westlake", "zip_code": "44145", "country": "US", "state": "OH", "display_address": ["2033 Crocker Rd", "Westlake, OH 44145"]}, "phone": "+14408359500", "display_phone": "(440) 835-9500", "distance": 5382.124537326644}, {"id": "8_9NeKvvJVaDZyhwchKM-w", "alias": "robeks-juice-westlake-4", "name": "Robeks Fresh Juices & Smoothies", "image_url": "https://s3-media4.fl.yelpcdn.com/bphoto/DHUBD92mokoYvb_OrJ8sRA/o.jpg", "is_closed": false, "url": "https://www.yelp.com/biz/robeks-juice-westlake-4?adjust_creative=XiulpY4J0xx_QhC29cyq-w&utm_campaign=yelp_api_v3&utm_medium=api_v3_business_search&utm_source=XiulpY4J0xx_QhC29cyq-w", "review_count": 25, "categories": [{"alias": "juicebars", "title": "Juice Bars & Smoothies"}, {"alias": "acaibowls", "title": "Acai Bowls"}], "rating": 4.0, "coordinates": {"latitude": 41.46185, "longitude": -81.95563}, "transactions": ["delivery", "pickup"], "price": "$", "location": {"address1": "30319 Detroit Rd", "address2": null, "address3": null, "city": "Westlake", "zip_code": "44145", "country": "US", "state": "OH", "display_address": ["30319 Detroit Rd", "Westlake, OH 44145"]}, "phone": "+14408355510", "display_phone": "(440) 835-5510", "distance": 5761.334395943436}, {"id": "XUcJiJx4x1RBtE31XrNexw", "alias": "market-rocky-river", "name": "Market", "image_url": "https://s3-media2.fl.yelpcdn.com/bphoto/VZsrclSioNfgD3G5Ba8I5g/o.jpg", "is_closed": false, "url": "https://www.yelp.com/biz/market-rocky-river?adjust_creative=XiulpY4J0xx_QhC29cyq-w&utm_campaign=yelp_api_v3&utm_medium=api_v3_business_search&utm_source=XiulpY4J0xx_QhC29cyq-w", "review_count": 266, "categories": [{"alias": "breakfast_brunch", "title": "Breakfast & Brunch"}, {"alias": "beerbar", "title": "Beer Bar"}, {"alias": "sandwiches", "title": "Sandwiches"}], "rating": 3.5, "coordinates": {"latitude": 41.481787, "longitude": -81.840207}, "transactions": ["delivery"], "price": "$$", "location": {"address1": "1137 Linda St", "address2": "", "address3": "", "city": "Rocky River", "zip_code": "44116", "country": "US", "state": "OH", "display_address": ["1137 Linda St", "Rocky River, OH 44116"]}, "phone": "+14407994292", "display_phone": "(440) 799-4292", "distance": 9979.202635676285}, {"id": "dBYf1CgMxBo5IQLbKup9CQ", "alias": "bubbakoos-burritos-avon", "name": "Bubbakoo's Burritos", "image_url": "https://s3-media3.fl.yelpcdn.com/bphoto/AGOKG_ltoKWEIZwmQyD2_Q/o.jpg", "is_closed": false, "url": "https://www.yelp.com/biz/bubbakoos-burritos-avon?adjust_creative=XiulpY4J0xx_QhC29cyq-w&utm_campaign=yelp_api_v3&utm_medium=api_v3_business_search&utm_source=XiulpY4J0xx_QhC29cyq-w", "review_count": 2, "categories": [{"alias": "mexican", "title": "Mexican"}, {"alias": "salad", "title": "Salad"}, {"alias": "hotdogs", "title": "Fast Food"}], "rating": 1.0, "coordinates": {"latitude": 41.4683699, "longitude": -82.0155941}, "transactions": ["delivery", "pickup"], "location": {"address1": "35840 Chester Rd", "address2": "Ste C", "address3": null, "city": "Avon", "zip_code": "44011", "country": "US", "state": "OH", "display_address": ["35840 Chester Rd", "Ste C", "Avon, OH 44011"]}, "phone": "+14405171950", "display_phone": "(440) 517-1950", "distance": 9684.464494524342}, {"id": "0tFK7ykUwRLOOjUwn5V4TQ", "alias": "speedway-north-ridgeville", "name": "Speedway", "image_url": "https://s3-media3.fl.yelpcdn.com/bphoto/qPCHmXdoggb7EkCrIp7qeA/o.jpg", "is_closed": false, "url": "https://www.yelp.com/biz/speedway-north-ridgeville?adjust_creative=XiulpY4J0xx_QhC29cyq-w&utm_campaign=yelp_api_v3&utm_medium=api_v3_business_search&utm_source=XiulpY4J0xx_QhC29cyq-w", "review_count": 1, "categories": [{"alias": "servicestations", "title": "Gas Stations"}, {"alias": "convenience", "title": "Convenience Stores"}, {"alias": "coffee", "title": "Coffee & Tea"}], "rating": 5.0, "coordinates": {"latitude": 41.38314, "longitude": -81.98005}, "transactions": ["delivery", "pickup"], "location": {"address1": "32760 Lorain Road", "address2": "", "address3": "", "city": "North Ridgeville", "zip_code": "44039", "country": "US", "state": "OH", "display_address": ["32760 Lorain Road", "North Ridgeville, OH 44039"]}, "phone": "+14403271586", "display_phone": "(440) 327-1586", "distance": 6078.267289304368}, {"id": "PUos6w1aB2GX6Qakf9616w", "alias": "beardens-rocky-river", "name": "Bearden's", "image_url": "https://s3-media2.fl.yelpcdn.com/bphoto/E4K80qk8eytgxf1uda4kdA/o.jpg", "is_closed": false, "url": "https://www.yelp.com/biz/beardens-rocky-river?adjust_creative=XiulpY4J0xx_QhC29cyq-w&utm_campaign=yelp_api_v3&utm_medium=api_v3_business_search&utm_source=XiulpY4J0xx_QhC29cyq-w", "review_count": 153, "categories": [{"alias": "burgers", "title": "Burgers"}, {"alias": "hotdogs", "title": "Fast Food"}, {"alias": "salad", "title": "Salad"}], "rating": 3.5, "coordinates": {"latitude": 41.48352, "longitude": -81.84271}, "transactions": ["delivery", "pickup"], "price": "$", "location": {"address1": "19985 Lake Rd", "address2": "", "address3": "", "city": "Rocky River", "zip_code": "44116", "country": "US", "state": "OH", "display_address": ["19985 Lake Rd", "Rocky River, OH 44116"]}, "phone": "+14403317850", "display_phone": "(440) 331-7850", "distance": 9980.235421217905}, {"id": "OBugrFun3tUkkbtyXv_uNw", "alias": "chattys-pizzeria-bay-village", "name": "Chatty's Pizzeria", "image_url": "https://s3-media3.fl.yelpcdn.com/bphoto/Ta9bIM_DsqNT-JnYchNTyw/o.jpg", "is_closed": false, "url": "https://www.yelp.com/biz/chattys-pizzeria-bay-village?adjust_creative=XiulpY4J0xx_QhC29cyq-w&utm_campaign=yelp_api_v3&utm_medium=api_v3_business_search&utm_source=XiulpY4J0xx_QhC29cyq-w", "review_count": 63, "categories": [{"alias": "pizza", "title": "Pizza"}, {"alias": "italian", "title": "Italian"}, {"alias": "salad", "title": "Salad"}], "rating": 4.5, "coordinates": {"latitude": 41.4885332, "longitude": -81.937155}, "transactions": ["delivery"], "location": {"address1": "28611 Lake Rd", "address2": "", "address3": null, "city": "Bay Village", "zip_code": "44140", "country": "US", "state": "OH", "display_address": ["28611 Lake Rd", "Bay Village, OH 44140"]}, "phone": "+14404714485", "display_phone": "(440) 471-4485", "distance": 8109.332328852287}, {"id": "9oFBGsO88-h67QPJrobmRQ", "alias": "las-margaritas-avon-lake-2", "name": "Las Margaritas", "image_url": "https://s3-media1.fl.yelpcdn.com/bphoto/k8XzBNo7-Y6NxKCr0EwXTQ/o.jpg", "is_closed": false, "url": "https://www.yelp.com/biz/las-margaritas-avon-lake-2?adjust_creative=XiulpY4J0xx_QhC29cyq-w&utm_campaign=yelp_api_v3&utm_medium=api_v3_business_search&utm_source=XiulpY4J0xx_QhC29cyq-w", "review_count": 19, "categories": [{"alias": "mexican", "title": "Mexican"}, {"alias": "chickenshop", "title": "Chicken Shop"}, {"alias": "seafood", "title": "Seafood"}], "rating": 4.0, "coordinates": {"latitude": 41.4921711, "longitude": -82.0184079}, "transactions": ["delivery", "pickup"], "location": {"address1": "519 Avon Belden Rd", "address2": null, "address3": null, "city": "Avon Lake", "zip_code": "44012", "country": "US", "state": "OH", "display_address": ["519 Avon Belden Rd", "Avon Lake, OH 44012"]}, "phone": "+14406539566", "display_phone": "(440) 653-9566", "distance": 11620.053733680896}, {"id": "spjaRNFn9Lmh4petKBuf5g", "alias": "sweet-basil-neapolitan-style-pizzeria-westlake", "name": "Sweet Basil Neapolitan Style Pizzeria", "image_url": "https://s3-media1.fl.yelpcdn.com/bphoto/3g3aem8y1UWlCXEUI2MtKg/o.jpg", "is_closed": false, "url": "https://www.yelp.com/biz/sweet-basil-neapolitan-style-pizzeria-westlake?adjust_creative=XiulpY4J0xx_QhC29cyq-w&utm_campaign=yelp_api_v3&utm_medium=api_v3_business_search&utm_source=XiulpY4J0xx_QhC29cyq-w", "review_count": 172, "categories": [{"alias": "pizza", "title": "Pizza"}], "rating": 4.0, "coordinates": {"latitude": 41.45272, "longitude": -81.91135}, "transactions": ["delivery"], "price": "$$", "location": {"address1": "26235 Ctr Ridge Rd", "address2": "", "address3": "", "city": "Westlake", "zip_code": "44145", "country": "US", "state": "OH", "display_address": ["26235 Ctr Ridge Rd", "Westlake, OH 44145"]}, "phone": "+14408991899", "display_phone": "(440) 899-1899", "distance": 4126.555543683592}, {"id": "dBYf1CgMxBo5IQLbKup9CQ", "alias": "bubbakoos-burritos-avon", "name": "Bubbakoo's Burritos", "image_url": "https://s3-media3.fl.yelpcdn.com/bphoto/AGOKG_ltoKWEIZwmQyD2_Q/o.jpg", "is_closed": false, "url": "https://www.yelp.com/biz/bubbakoos-burritos-avon?adjust_creative=XiulpY4J0xx_QhC29cyq-w&utm_campaign=yelp_api_v3&utm_medium=api_v3_business_search&utm_source=XiulpY4J0xx_QhC29cyq-w", "review_count": 2, "categories": [{"alias": "mexican", "title": "Mexican"}, {"alias": "salad", "title": "Salad"}, {"alias": "hotdogs", "title": "Fast Food"}], "rating": 1.0, "coordinates": {"latitude": 41.4683699, "longitude": -82.0155941}, "transactions": ["delivery", "pickup"], "location": {"address1": "35840 Chester Rd", "address2": "Ste C", "address3": null, "city": "Avon", "zip_code": "44011", "country": "US", "state": "OH", "display_address": ["35840 Chester Rd", "Ste C", "Avon, OH 44011"]}, "phone": "+14405171950", "display_phone": "(440) 517-1950", "distance": 10087.250178267186}, {"id": "OBugrFun3tUkkbtyXv_uNw", "alias": "chattys-pizzeria-bay-village", "name": "Chatty's Pizzeria", "image_url": "https://s3-media3.fl.yelpcdn.com/bphoto/Ta9bIM_DsqNT-JnYchNTyw/o.jpg", "is_closed": false, "url": "https://www.yelp.com/biz/chattys-pizzeria-bay-village?adjust_creative=XiulpY4J0xx_QhC29cyq-w&utm_campaign=yelp_api_v3&utm_medium=api_v3_business_search&utm_source=XiulpY4J0xx_QhC29cyq-w", "review_count": 63, "categories": [{"alias": "pizza", "title": "Pizza"}, {"alias": "italian", "title": "Italian"}, {"alias": "salad", "title": "Salad"}], "rating": 4.5, "coordinates": {"latitude": 41.4885332, "longitude": -81.937155}, "transactions": ["delivery"], "location": {"address1": "28611 Lake Rd", "address2": "", "address3": null, "city": "Bay Village", "zip_code": "44140", "country": "US", "state": "OH", "display_address": ["28611 Lake Rd", "Bay Village, OH 44140"]}, "phone": "+14404714485", "display_phone": "(440) 471-4485", "distance": 7894.902785585614}, {"id": "RX_zkcMKa6wOsUNhGpHaoQ", "alias": "melt-bar-and-grilled-avon-2", "name": "Melt Bar and Grilled", "image_url": "https://s3-media3.fl.yelpcdn.com/bphoto/3QhfhemZ51vcZ3Gp6qnAyQ/o.jpg", "is_closed": false, "url": "https://www.yelp.com/biz/melt-bar-and-grilled-avon-2?adjust_creative=XiulpY4J0xx_QhC29cyq-w&utm_campaign=yelp_api_v3&utm_medium=api_v3_business_search&utm_source=XiulpY4J0xx_QhC29cyq-w", "review_count": 205, "categories": [{"alias": "comfortfood", "title": "Comfort Food"}, {"alias": "newamerican", "title": "American (New)"}, {"alias": "vegan", "title": "Vegan"}], "rating": 3.0, "coordinates": {"latitude": 41.457949, "longitude": -82.010834}, "transactions": ["delivery", "pickup"], "price": "$$", "location": {"address1": "35546 Detroit Ave", "address2": "", "address3": null, "city": "Avon", "zip_code": "44011", "country": "US", "state": "OH", "display_address": ["35546 Detroit Ave", "Avon, OH 44011"]}, "phone": "+14403903850", "display_phone": "(440) 390-3850", "distance": 9160.731048793248}, {"id": "hn1dauyxcr7wqoTFSwnzZQ", "alias": "smoothie-king-rocky-river", "name": "Smoothie King", "image_url": "https://s3-media2.fl.yelpcdn.com/bphoto/h4L_5IpSPZZENiHKE2Jqsw/o.jpg", "is_closed": false, "url": "https://www.yelp.com/biz/smoothie-king-rocky-river?adjust_creative=XiulpY4J0xx_QhC29cyq-w&utm_campaign=yelp_api_v3&utm_medium=api_v3_business_search&utm_source=XiulpY4J0xx_QhC29cyq-w", "review_count": 3, "categories": [{"alias": "juicebars", "title": "Juice Bars & Smoothies"}, {"alias": "healthmarkets", "title": "Health Markets"}], "rating": 3.5, "coordinates": {"latitude": 41.46235681, "longitude": -81.84954318}, "transactions": ["delivery", "pickup"], "location": {"address1": "20649 Center Ridge Rd", "address2": null, "address3": null, "city": "Rocky River", "zip_code": "44116", "country": "US", "state": "OH", "display_address": ["20649 Center Ridge Rd", "Rocky River, OH 44116"]}, "phone": "+12167124521", "display_phone": "(216) 712-4521", "distance": 7120.237910193655}, {"id": "qO7dpBAVxbrR4GbtR2uCOw", "alias": "hecks-avon-avon", "name": "Hecks - Avon", "image_url": "https://s3-media4.fl.yelpcdn.com/bphoto/WdkPppdut8-u3eVgQpjveg/o.jpg", "is_closed": false, "url": "https://www.yelp.com/biz/hecks-avon-avon?adjust_creative=XiulpY4J0xx_QhC29cyq-w&utm_campaign=yelp_api_v3&utm_medium=api_v3_business_search&utm_source=XiulpY4J0xx_QhC29cyq-w", "review_count": 211, "categories": [{"alias": "newamerican", "title": "American (New)"}, {"alias": "breakfast_brunch", "title": "Breakfast & Brunch"}, {"alias": "cocktailbars", "title": "Cocktail Bars"}], "rating": 3.5, "coordinates": {"latitude": 41.45715918, "longitude": -82.01041052}, "transactions": ["delivery", "pickup"], "price": "$$", "location": {"address1": "35514 Detroit Rd", "address2": "", "address3": "", "city": "Avon", "zip_code": "44011", "country": "US", "state": "OH", "display_address": ["35514 Detroit Rd", "Avon, OH 44011"]}, "phone": "+14409373200", "display_phone": "(440) 937-3200", "distance": 9092.797152768437}, {"id": "vs8orAK8nDXFxFiIfv0yYQ", "alias": "ginas-pizza-bay-village", "name": "Gina's Pizza", "image_url": "https://s3-media2.fl.yelpcdn.com/bphoto/BgmmUFT6_9S5lHBwnCcJSw/o.jpg", "is_closed": false, "url": "https://www.yelp.com/biz/ginas-pizza-bay-village?adjust_creative=XiulpY4J0xx_QhC29cyq-w&utm_campaign=yelp_api_v3&utm_medium=api_v3_business_search&utm_source=XiulpY4J0xx_QhC29cyq-w", "review_count": 71, "categories": [{"alias": "pizza", "title": "Pizza"}, {"alias": "salad", "title": "Salad"}], "rating": 4.5, "coordinates": {"latitude": 41.4780273, "longitude": -81.9212265}, "transactions": ["delivery"], "price": "$$", "location": {"address1": "622 Dover Center Rd", "address2": null, "address3": "", "city": "Bay Village", "zip_code": "44140", "country": "US", "state": "OH", "display_address": ["622 Dover Center Rd", "Bay Village, OH 44140"]}, "phone": "+14402509900", "display_phone": "(440) 250-9900", "distance": 6568.26646232008}, {"id": "PHceo653FqAeQHHrvvaMjA", "alias": "rosewood-grill-westlake-westlake", "name": "Rosewood Grill- Westlake", "image_url": "https://s3-media2.fl.yelpcdn.com/bphoto/5KRfz4S9eZ0UEHalSuotwQ/o.jpg", "is_closed": false, "url": "https://www.yelp.com/biz/rosewood-grill-westlake-westlake?adjust_creative=XiulpY4J0xx_QhC29cyq-w&utm_campaign=yelp_api_v3&utm_medium=api_v3_business_search&utm_source=XiulpY4J0xx_QhC29cyq-w", "review_count": 136, "categories": [{"alias": "newamerican", "title": "American (New)"}], "rating": 3.5, "coordinates": {"latitude": 41.4600382, "longitude": -81.9498996}, "transactions": ["delivery"], "price": "$$", "location": {"address1": "2033 Crocker Rd", "address2": "", "address3": "", "city": "Westlake", "zip_code": "44145", "country": "US", "state": "OH", "display_address": ["2033 Crocker Rd", "Westlake, OH 44145"]}, "phone": "+14408359500", "display_phone": "(440) 835-9500", "distance": 5417.514570839232}, {"id": "WiCzoIEObVrNYYFUkqJCDw", "alias": "spudnut-donuts-berea", "name": "Spudnut Donuts", "image_url": "https://s3-media2.fl.yelpcdn.com/bphoto/9D7UsntANDG8HfPafeyodQ/o.jpg", "is_closed": false, "url": "https://www.yelp.com/biz/spudnut-donuts-berea?adjust_creative=XiulpY4J0xx_QhC29cyq-w&utm_campaign=yelp_api_v3&utm_medium=api_v3_business_search&utm_source=XiulpY4J0xx_QhC29cyq-w", "review_count": 100, "categories": [{"alias": "donuts", "title": "Donuts"}], "rating": 4.5, "coordinates": {"latitude": 41.35035, "longitude": -81.85782}, "transactions": ["delivery"], "price": "$", "location": {"address1": "650 Prospect St", "address2": "", "address3": "", "city": "Berea", "zip_code": "44017", "country": "US", "state": "OH", "display_address": ["650 Prospect St", "Berea, OH 44017"]}, "phone": "+14402344249", "display_phone": "(440) 234-4249", "distance": 9006.36807455144}, {"id": "8_9NeKvvJVaDZyhwchKM-w", "alias": "robeks-juice-westlake-4", "name": "Robeks Fresh Juices & Smoothies", "image_url": "https://s3-media4.fl.yelpcdn.com/bphoto/DHUBD92mokoYvb_OrJ8sRA/o.jpg", "is_closed": false, "url": "https://www.yelp.com/biz/robeks-juice-westlake-4?adjust_creative=XiulpY4J0xx_QhC29cyq-w&utm_campaign=yelp_api_v3&utm_medium=api_v3_business_search&utm_source=XiulpY4J0xx_QhC29cyq-w", "review_count": 25, "categories": [{"alias": "juicebars", "title": "Juice Bars & Smoothies"}, {"alias": "acaibowls", "title": "Acai Bowls"}], "rating": 4.0, "coordinates": {"latitude": 41.46185, "longitude": -81.95563}, "transactions": ["delivery", "pickup"], "price": "$", "location": {"address1": "30319 Detroit Rd", "address2": null, "address3": null, "city": "Westlake", "zip_code": "44145", "country": "US", "state": "OH", "display_address": ["30319 Detroit Rd", "Westlake, OH 44145"]}, "phone": "+14408355510", "display_phone": "(440) 835-5510", "distance": 5853.378728752726}, {"id": "iEYCU5LV6FIr3kpvYltYrw", "alias": "cabin-club-westlake-2", "name": "Cabin Club", "image_url": "https://s3-media1.fl.yelpcdn.com/bphoto/FK5-WrSukXJLielS0f_uAw/o.jpg", "is_closed": false, "url": "https://www.yelp.com/biz/cabin-club-westlake-2?adjust_creative=XiulpY4J0xx_QhC29cyq-w&utm_campaign=yelp_api_v3&utm_medium=api_v3_business_search&utm_source=XiulpY4J0xx_QhC29cyq-w", "review_count": 215, "categories": [{"alias": "steak", "title": "Steakhouses"}, {"alias": "seafood", "title": "Seafood"}, {"alias": "bars", "title": "Bars"}], "rating": 4.0, "coordinates": {"latitude": 41.461427968328, "longitude": -81.95882586425559}, "transactions": ["delivery"], "price": "$$$", "location": {"address1": "30651 Detroit Rd", "address2": null, "address3": "", "city": "Westlake", "zip_code": "44145", "country": "US", "state": "OH", "display_address": ["30651 Detroit Rd", "Westlake, OH 44145"]}, "phone": "+14408997111", "display_phone": "(440) 899-7111", "distance": 5981.059829348116}, {"id": "0ncqSuOVN1EYGlXgGyM05g", "alias": "igloo-frozen-yogurt-and-treats-berea-4", "name": "Igloo Frozen Yogurt And Treats", "image_url": "https://s3-media2.fl.yelpcdn.com/bphoto/lI6Cv8P9rHdHL1agWfB6vQ/o.jpg", "is_closed": false, "url": "https://www.yelp.com/biz/igloo-frozen-yogurt-and-treats-berea-4?adjust_creative=XiulpY4J0xx_QhC29cyq-w&utm_campaign=yelp_api_v3&utm_medium=api_v3_business_search&utm_source=XiulpY4J0xx_QhC29cyq-w", "review_count": 17, "categories": [{"alias": "icecream", "title": "Ice Cream & Frozen Yogurt"}, {"alias": "desserts", "title": "Desserts"}, {"alias": "customcakes", "title": "Custom Cakes"}], "rating": 4.5, "coordinates": {"latitude": 41.3665, "longitude": -81.85284}, "transactions": ["delivery"], "price": "$$", "location": {"address1": "44 Front St", "address2": "", "address3": "", "city": "Berea", "zip_code": "44017", "country": "US", "state": "OH", "display_address": ["44 Front St", "Berea, OH 44017"]}, "phone": "+14402348744", "display_phone": "(440) 234-8744", "distance": 7784.916994898657}, {"id": "7-pYcr9U4dD7t9tJ1Lcirg", "alias": "tacos-del-pueblo-mexican-grill-north-ridgeville", "name": "Tacos Del Pueblo Mexican Grill", "image_url": "https://s3-media3.fl.yelpcdn.com/bphoto/wN7MbpEAzQVrslKhVnj7rQ/o.jpg", "is_closed": false, "url": "https://www.yelp.com/biz/tacos-del-pueblo-mexican-grill-north-ridgeville?adjust_creative=XiulpY4J0xx_QhC29cyq-w&utm_campaign=yelp_api_v3&utm_medium=api_v3_business_search&utm_source=XiulpY4J0xx_QhC29cyq-w", "review_count": 10, "categories": [{"alias": "tacos", "title": "Tacos"}, {"alias": "steak", "title": "Steakhouses"}, {"alias": "cocktailbars", "title": "Cocktail Bars"}], "rating": 3.5, "coordinates": {"latitude": 41.39736455449107, "longitude": -81.99536440000001}, "transactions": ["delivery", "pickup"], "location": {"address1": "34173 Center Ridge Rd", "address2": null, "address3": "", "city": "North Ridgeville", "zip_code": "44039", "country": "US", "state": "OH", "display_address": ["34173 Center Ridge Rd", "North Ridgeville, OH 44039"]}, "phone": "+14402819246", "display_phone": "(440) 281-9246", "distance": 7278.734459459497}, {"id": "sMuDjn2tk_-n7S1cyGhtjQ", "alias": "speedway-westlake-2", "name": "Speedway", "image_url": "https://s3-media1.fl.yelpcdn.com/bphoto/PqfgJYMiK33Qv4BV5KFYyQ/o.jpg", "is_closed": false, "url": "https://www.yelp.com/biz/speedway-westlake-2?adjust_creative=XiulpY4J0xx_QhC29cyq-w&utm_campaign=yelp_api_v3&utm_medium=api_v3_business_search&utm_source=XiulpY4J0xx_QhC29cyq-w", "review_count": 3, "categories": [{"alias": "servicestations", "title": "Gas Stations"}, {"alias": "convenience", "title": "Convenience Stores"}, {"alias": "coffee", "title": "Coffee & Tea"}], "rating": 3.0, "coordinates": {"latitude": 41.4488792, "longitude": -81.9226227}, "transactions": ["delivery", "pickup"], "location": {"address1": "2726 Dover Center Rd", "address2": "", "address3": "", "city": "Westlake", "zip_code": "44145", "country": "US", "state": "OH", "display_address": ["2726 Dover Center Rd", "Westlake, OH 44145"]}, "phone": "+14406179076", "display_phone": "(440) 617-9076", "distance": 3330.493182206914}, {"id": "EZ0rGLEYUO6ZVraKVOja4Q", "alias": "bay-provisions-bay-village", "name": "Bay Provisions", "image_url": "https://s3-media2.fl.yelpcdn.com/bphoto/-JPcGtO0t5V3Ea5bE-TQbQ/o.jpg", "is_closed": false, "url": "https://www.yelp.com/biz/bay-provisions-bay-village?adjust_creative=XiulpY4J0xx_QhC29cyq-w&utm_campaign=yelp_api_v3&utm_medium=api_v3_business_search&utm_source=XiulpY4J0xx_QhC29cyq-w", "review_count": 4, "categories": [{"alias": "icecream", "title": "Ice Cream & Frozen Yogurt"}, {"alias": "coffee", "title": "Coffee & Tea"}, {"alias": "bars", "title": "Bars"}], "rating": 5.0, "coordinates": {"latitude": 41.490715, "longitude": -81.950176}, "transactions": [], "location": {"address1": "328 Bassett Rd", "address2": null, "address3": "", "city": "Bay Village", "zip_code": "44140", "country": "US", "state": "OH", "display_address": ["328 Bassett Rd", "Bay Village, OH 44140"]}, "phone": "+14404551772", "display_phone": "(440) 455-1772", "distance": 8461.873780057553}, {"id": "EpJhRvkGDFE-GDPHM32klw", "alias": "aladdins-eatery-crocker-park-westlake", "name": "Aladdin's Eatery - Crocker Park", "image_url": "https://s3-media1.fl.yelpcdn.com/bphoto/WnkJt1jJLQ8Vyvrp8NVPlA/o.jpg", "is_closed": false, "url": "https://www.yelp.com/biz/aladdins-eatery-crocker-park-westlake?adjust_creative=XiulpY4J0xx_QhC29cyq-w&utm_campaign=yelp_api_v3&utm_medium=api_v3_business_search&utm_source=XiulpY4J0xx_QhC29cyq-w", "review_count": 138, "categories": [{"alias": "mideastern", "title": "Middle Eastern"}, {"alias": "mediterranean", "title": "Mediterranean"}], "rating": 4.0, "coordinates": {"latitude": 41.45947, "longitude": -81.95089}, "transactions": ["delivery", "pickup"], "price": "$$", "location": {"address1": "151 Crocker Park Blvd", "address2": "", "address3": "", "city": "Westlake", "zip_code": "44145", "country": "US", "state": "OH", "display_address": ["151 Crocker Park Blvd", "Westlake, OH 44145"]}, "phone": "+14406179005", "display_phone": "(440) 617-9005", "distance": 5403.280372130045}, {"id": "fPDBfZ4v49OBbTk-Yd41yA", "alias": "speedway-westlake", "name": "Speedway", "image_url": "https://s3-media1.fl.yelpcdn.com/bphoto/DdsiA2a7CmXkBeFHUv4KJA/o.jpg", "is_closed": false, "url": "https://www.yelp.com/biz/speedway-westlake?adjust_creative=XiulpY4J0xx_QhC29cyq-w&utm_campaign=yelp_api_v3&utm_medium=api_v3_business_search&utm_source=XiulpY4J0xx_QhC29cyq-w", "review_count": 6, "categories": [{"alias": "servicestations", "title": "Gas Stations"}, {"alias": "convenience", "title": "Convenience Stores"}, {"alias": "coffee", "title": "Coffee & Tea"}], "rating": 4.5, "coordinates": {"latitude": 41.46044, "longitude": -81.96113}, "transactions": ["delivery", "pickup"], "location": {"address1": "30805 Detroit Road", "address2": "", "address3": "", "city": "Westlake", "zip_code": "44145", "country": "US", "state": "OH", "display_address": ["30805 Detroit Road", "Westlake, OH 44145"]}, "phone": "+14408990179", "display_phone": "(440) 899-0179", "distance": 6011.662186877896}, {"id": "Zgp2mLww3lVFGrMReJmKKw", "alias": "sweet-mango-berea-thai-cuisine-berea", "name": "Sweet Mango Berea Thai Cuisine", "image_url": "https://s3-media2.fl.yelpcdn.com/bphoto/lHUaLQGcQUA06EU9sXrf8A/o.jpg", "is_closed": false, "url": "https://www.yelp.com/biz/sweet-mango-berea-thai-cuisine-berea?adjust_creative=XiulpY4J0xx_QhC29cyq-w&utm_campaign=yelp_api_v3&utm_medium=api_v3_business_search&utm_source=XiulpY4J0xx_QhC29cyq-w", "review_count": 131, "categories": [{"alias": "thai", "title": "Thai"}], "rating": 4.0, "coordinates": {"latitude": 41.3667602539062, "longitude": -81.8527755737305}, "transactions": ["delivery"], "price": "$$", "location": {"address1": "54 Front St", "address2": null, "address3": null, "city": "Berea", "zip_code": "44017", "country": "US", "state": "OH", "display_address": ["54 Front St", "Berea, OH 44017"]}, "phone": "+14402344816", "display_phone": "(440) 234-4816", "distance": 7766.876645344661}, {"id": "OMK0aVUa13w_O-dZ64HoYg", "alias": "subway-berea-7", "name": "Subway", "image_url": "https://s3-media4.fl.yelpcdn.com/bphoto/xRtW6QzU01UAvzvFAaQKNQ/o.jpg", "is_closed": false, "url": "https://www.yelp.com/biz/subway-berea-7?adjust_creative=XiulpY4J0xx_QhC29cyq-w&utm_campaign=yelp_api_v3&utm_medium=api_v3_business_search&utm_source=XiulpY4J0xx_QhC29cyq-w", "review_count": 1, "categories": [{"alias": "sandwiches", "title": "Sandwiches"}, {"alias": "hotdogs", "title": "Fast Food"}], "rating": 5.0, "coordinates": {"latitude": 41.3713905389326, "longitude": -81.8681507378807}, "transactions": ["delivery", "pickup"], "price": "$", "location": {"address1": "401 W Bagley Rd", "address2": "", "address3": "", "city": "Berea", "zip_code": "44017", "country": "US", "state": "OH", "display_address": ["401 W Bagley Rd", "Berea, OH 44017"]}, "phone": "+14408263007", "display_phone": "(440) 826-3007", "distance": 6573.687572725753}, {"id": "l4K0xNw2JXwz7CB1hwV70Q", "alias": "mootown-creamery-north-ridgeville", "name": "Mootown Creamery", "image_url": "", "is_closed": false, "url": "https://www.yelp.com/biz/mootown-creamery-north-ridgeville?adjust_creative=XiulpY4J0xx_QhC29cyq-w&utm_campaign=yelp_api_v3&utm_medium=api_v3_business_search&utm_source=XiulpY4J0xx_QhC29cyq-w", "review_count": 3, "categories": [{"alias": "desserts", "title": "Desserts"}, {"alias": "icecream", "title": "Ice Cream & Frozen Yogurt"}, {"alias": "juicebars", "title": "Juice Bars & Smoothies"}], "rating": 3.5, "coordinates": {"latitude": 41.3980842, "longitude": -81.9961358}, "transactions": [], "location": {"address1": "34259 Center Ridge Rd", "address2": "", "address3": null, "city": "North Ridgeville", "zip_code": "44039", "country": "US", "state": "OH", "display_address": ["34259 Center Ridge Rd", "North Ridgeville, OH 44039"]}, "phone": "", "display_phone": "", "distance": 7447.4285677166945}, {"id": "CNdT-IESsv7xgXtCPwcF1Q", "alias": "bigmouth-donut-rocky-river-rocky-river", "name": "Bigmouth Donut - Rocky River", "image_url": "https://s3-media4.fl.yelpcdn.com/bphoto/Fz9g7ZGf8OSuqpYqNLzSeA/o.jpg", "is_closed": false, "url": "https://www.yelp.com/biz/bigmouth-donut-rocky-river-rocky-river?adjust_creative=XiulpY4J0xx_QhC29cyq-w&utm_campaign=yelp_api_v3&utm_medium=api_v3_business_search&utm_source=XiulpY4J0xx_QhC29cyq-w", "review_count": 55, "categories": [{"alias": "donuts", "title": "Donuts"}, {"alias": "bakeries", "title": "Bakeries"}, {"alias": "coffee", "title": "Coffee & Tea"}], "rating": 4.5, "coordinates": {"latitude": 41.48176, "longitude": -81.83581}, "transactions": ["delivery"], "location": {"address1": "19265 Detroit Rd", "address2": null, "address3": "", "city": "Rocky River", "zip_code": "44116", "country": "US", "state": "OH", "display_address": ["19265 Detroit Rd", "Rocky River, OH 44116"]}, "phone": "+12162828228", "display_phone": "(216) 282-8228", "distance": 9459.580310884647}, {"id": "jdUxPtF1eZ3B3FD3STND1g", "alias": "speedway-berea-2", "name": "Speedway", "image_url": "https://s3-media3.fl.yelpcdn.com/bphoto/qpofWFUHj-wbwC8l2WZ_YA/o.jpg", "is_closed": false, "url": "https://www.yelp.com/biz/speedway-berea-2?adjust_creative=XiulpY4J0xx_QhC29cyq-w&utm_campaign=yelp_api_v3&utm_medium=api_v3_business_search&utm_source=XiulpY4J0xx_QhC29cyq-w", "review_count": 7, "categories": [{"alias": "servicestations", "title": "Gas Stations"}, {"alias": "convenience", "title": "Convenience Stores"}, {"alias": "coffee", "title": "Coffee & Tea"}], "rating": 3.5, "coordinates": {"latitude": 41.3893, "longitude": -81.85153}, "transactions": ["delivery", "pickup"], "price": "$", "location": {"address1": "880 N Rocky River Dr", "address2": "", "address3": "", "city": "Berea", "zip_code": "44017", "country": "US", "state": "OH", "display_address": ["880 N Rocky River Dr", "Berea, OH 44017"]}, "phone": "+14408260171", "display_phone": "(440) 826-0171", "distance": 6165.943520861453}, {"id": "PgaHjsWV3whvHF1CHU1rZg", "alias": "king-wah-rocky-river", "name": "King Wah", "image_url": "https://s3-media3.fl.yelpcdn.com/bphoto/bxNAF2dGn9_ynRj1RMJJHQ/o.jpg", "is_closed": false, "url": "https://www.yelp.com/biz/king-wah-rocky-river?adjust_creative=XiulpY4J0xx_QhC29cyq-w&utm_campaign=yelp_api_v3&utm_medium=api_v3_business_search&utm_source=XiulpY4J0xx_QhC29cyq-w", "review_count": 179, "categories": [{"alias": "chinese", "title": "Chinese"}], "rating": 3.5, "coordinates": {"latitude": 41.4628571, "longitude": -81.8496983}, "transactions": ["delivery"], "price": "$$", "location": {"address1": "20668 Center Ridge Rd", "address2": "", "address3": "", "city": "Rocky River", "zip_code": "44116", "country": "US", "state": "OH", "display_address": ["20668 Center Ridge Rd", "Rocky River, OH 44116"]}, "phone": "+14403310330", "display_phone": "(440) 331-0330", "distance": 7176.981879354682}, {"id": "tlMcNkueAzvlTQKACtPCCQ", "alias": "east-coast-original-frozen-custard-fairview-park", "name": "East Coast Original Frozen Custard", "image_url": "https://s3-media3.fl.yelpcdn.com/bphoto/SELY7KFodVZ2AazAkYamEw/o.jpg", "is_closed": false, "url": "https://www.yelp.com/biz/east-coast-original-frozen-custard-fairview-park?adjust_creative=XiulpY4J0xx_QhC29cyq-w&utm_campaign=yelp_api_v3&utm_medium=api_v3_business_search&utm_source=XiulpY4J0xx_QhC29cyq-w", "review_count": 30, "categories": [{"alias": "icecream", "title": "Ice Cream & Frozen Yogurt"}, {"alias": "juicebars", "title": "Juice Bars & Smoothies"}], "rating": 4.0, "coordinates": {"latitude": 41.43847, "longitude": -81.87114}, "transactions": ["delivery", "pickup"], "price": "$", "location": {"address1": "22669 Lorain Rd", "address2": "", "address3": null, "city": "Fairview Park", "zip_code": "44126", "country": "US", "state": "OH", "display_address": ["22669 Lorain Rd", "Fairview Park, OH 44126"]}, "phone": "+14403312609", "display_phone": "(440) 331-2609", "distance": 4091.2427002065283}, {"id": "VV5QvID1xPwmyYXW6aCTSQ", "alias": "subway-westlake-9", "name": "Subway", "image_url": "https://s3-media3.fl.yelpcdn.com/bphoto/cj5sbZtGS2i4vMpB1Sndvg/o.jpg", "is_closed": false, "url": "https://www.yelp.com/biz/subway-westlake-9?adjust_creative=XiulpY4J0xx_QhC29cyq-w&utm_campaign=yelp_api_v3&utm_medium=api_v3_business_search&utm_source=XiulpY4J0xx_QhC29cyq-w", "review_count": 8, "categories": [{"alias": "sandwiches", "title": "Sandwiches"}, {"alias": "hotdogs", "title": "Fast Food"}], "rating": 3.0, "coordinates": {"latitude": 41.4621722659151, "longitude": -81.9562217938113}, "transactions": ["delivery", "pickup"], "price": "$", "location": {"address1": "30325 Detroit Rd", "address2": "", "address3": "", "city": "Westlake", "zip_code": "44145", "country": "US", "state": "OH", "display_address": ["30325 Detroit Rd", "Westlake, OH 44145"]}, "phone": "+14408712101", "display_phone": "(440) 871-2101", "distance": 5911.704141425551}, {"id": "dAn1MqXl4pghfeXx3XFRaQ", "alias": "brueggers-bagels-cleveland-4", "name": "Bruegger's Bagels", "image_url": "https://s3-media1.fl.yelpcdn.com/bphoto/XHjVjj2enlyI-wf3rRD26w/o.jpg", "is_closed": false, "url": "https://www.yelp.com/biz/brueggers-bagels-cleveland-4?adjust_creative=XiulpY4J0xx_QhC29cyq-w&utm_campaign=yelp_api_v3&utm_medium=api_v3_business_search&utm_source=XiulpY4J0xx_QhC29cyq-w", "review_count": 86, "categories": [{"alias": "breakfast_brunch", "title": "Breakfast & Brunch"}, {"alias": "bagels", "title": "Bagels"}, {"alias": "sandwiches", "title": "Sandwiches"}], "rating": 2.5, "coordinates": {"latitude": 41.41054, "longitude": -81.83314}, "transactions": ["delivery"], "price": "$", "location": {"address1": "5300 Riverside Dr", "address2": "", "address3": "Main Terminal Concourse C Space 250", "city": "Cleveland", "zip_code": "44135", "country": "US", "state": "OH", "display_address": ["5300 Riverside Dr", "Main Terminal Concourse C Space 250", "Cleveland, OH 44135"]}, "phone": "+12162658459", "display_phone": "(216) 265-8459", "distance": 6722.130248585604}, {"id": "bxhI4uT3GAMuWNscmzbAcQ", "alias": "subway-restaurants-north-olmsted-2", "name": "Subway Restaurants", "image_url": "https://s3-media2.fl.yelpcdn.com/bphoto/U4TYCedzZgpB2ycnFuqrBA/o.jpg", "is_closed": false, "url": "https://www.yelp.com/biz/subway-restaurants-north-olmsted-2?adjust_creative=XiulpY4J0xx_QhC29cyq-w&utm_campaign=yelp_api_v3&utm_medium=api_v3_business_search&utm_source=XiulpY4J0xx_QhC29cyq-w", "review_count": 2, "categories": [{"alias": "sandwiches", "title": "Sandwiches"}, {"alias": "hotdogs", "title": "Fast Food"}], "rating": 2.5, "coordinates": {"latitude": 41.40840332721118, "longitude": -81.9388238805057}, "transactions": ["delivery", "pickup"], "price": "$", "location": {"address1": "28661 Lorain Rd", "address2": null, "address3": null, "city": "North Olmsted", "zip_code": "44070", "country": "US", "state": "OH", "display_address": ["28661 Lorain Rd", "North Olmsted, OH 44070"]}, "phone": "+14407771414", "display_phone": "(440) 777-1414", "distance": 2472.0305587574417}, {"id": "3qLTly2tgDgBMVKyoK8O3w", "alias": "souper-market-cleveland-3", "name": "Souper Market", "image_url": "https://s3-media4.fl.yelpcdn.com/bphoto/z1ZEPVKJP8uOIXn2dfLa5w/o.jpg", "is_closed": false, "url": "https://www.yelp.com/biz/souper-market-cleveland-3?adjust_creative=XiulpY4J0xx_QhC29cyq-w&utm_campaign=yelp_api_v3&utm_medium=api_v3_business_search&utm_source=XiulpY4J0xx_QhC29cyq-w", "review_count": 53, "categories": [{"alias": "soup", "title": "Soup"}, {"alias": "salad", "title": "Salad"}, {"alias": "vegetarian", "title": "Vegetarian"}], "rating": 4.5, "coordinates": {"latitude": 41.4504923692652, "longitude": -81.8152962638419}, "transactions": ["delivery"], "price": "$", "location": {"address1": "16804 Lorain Ave", "address2": "", "address3": "", "city": "Cleveland", "zip_code": "44111", "country": "US", "state": "OH", "display_address": ["16804 Lorain Ave", "Cleveland, OH 44111"]}, "phone": "+12163039240", "display_phone": "(216) 303-9240", "distance": 8859.682166274675}, {"id": "2JtVg61XeFDyn2YuoaPJ5Q", "alias": "subway-olmsted-twnshp-3", "name": "Subway", "image_url": "https://s3-media2.fl.yelpcdn.com/bphoto/LQcIruviMedSqRA7xGzBKg/o.jpg", "is_closed": false, "url": "https://www.yelp.com/biz/subway-olmsted-twnshp-3?adjust_creative=XiulpY4J0xx_QhC29cyq-w&utm_campaign=yelp_api_v3&utm_medium=api_v3_business_search&utm_source=XiulpY4J0xx_QhC29cyq-w", "review_count": 5, "categories": [{"alias": "sandwiches", "title": "Sandwiches"}, {"alias": "hotdogs", "title": "Fast Food"}], "rating": 3.0, "coordinates": {"latitude": 41.38761066967224, "longitude": -81.9038068788826}, "transactions": ["delivery", "pickup"], "price": "$", "location": {"address1": "7062 Columbia Rd Olmsted", "address2": "", "address3": "", "city": "Twnshp", "zip_code": "44138", "country": "US", "state": "OH", "display_address": ["7062 Columbia Rd Olmsted", "Twnshp, OH 44138"]}, "phone": "+14404278763", "display_phone": "(440) 427-8763", "distance": 3667.806506458452}, {"id": "-mP3F3srknwKJdJ5FqcX5Q", "alias": "mitchells-homemade-ice-cream-westlake-westlake-2", "name": "Mitchell's Homemade Ice Cream - Westlake", "image_url": "https://s3-media3.fl.yelpcdn.com/bphoto/cX_dmj-C5A69cAl6LU6LaA/o.jpg", "is_closed": false, "url": "https://www.yelp.com/biz/mitchells-homemade-ice-cream-westlake-westlake-2?adjust_creative=XiulpY4J0xx_QhC29cyq-w&utm_campaign=yelp_api_v3&utm_medium=api_v3_business_search&utm_source=XiulpY4J0xx_QhC29cyq-w", "review_count": 108, "categories": [{"alias": "icecream", "title": "Ice Cream & Frozen Yogurt"}, {"alias": "desserts", "title": "Desserts"}], "rating": 5.0, "coordinates": {"latitude": 41.46706, "longitude": -81.9206}, "transactions": ["delivery"], "price": "$$", "location": {"address1": "27155 Detroit Rd", "address2": "", "address3": "", "city": "Westlake", "zip_code": "44145", "country": "US", "state": "OH", "display_address": ["27155 Detroit Rd", "Westlake, OH 44145"]}, "phone": "+14404551405", "display_phone": "(440) 455-1405", "distance": 5295.373529559228}, {"id": "_u_wIdQupW6Qgl5N6hPzAA", "alias": "cilantro-taqueria-lakewood-2", "name": "Cilantro Taqueria", "image_url": "https://s3-media2.fl.yelpcdn.com/bphoto/15W40GRokScMdDZL-kGRVA/o.jpg", "is_closed": false, "url": "https://www.yelp.com/biz/cilantro-taqueria-lakewood-2?adjust_creative=XiulpY4J0xx_QhC29cyq-w&utm_campaign=yelp_api_v3&utm_medium=api_v3_business_search&utm_source=XiulpY4J0xx_QhC29cyq-w", "review_count": 69, "categories": [{"alias": "tacos", "title": "Tacos"}, {"alias": "latin", "title": "Latin American"}, {"alias": "tex-mex", "title": "Tex-Mex"}], "rating": 4.0, "coordinates": {"latitude": 41.48324, "longitude": -81.82573}, "transactions": ["delivery"], "price": "$$", "location": {"address1": "18260 Detroit Ave", "address2": null, "address3": "", "city": "Lakewood", "zip_code": "44107", "country": "US", "state": "OH", "display_address": ["18260 Detroit Ave", "Lakewood, OH 44107"]}, "phone": "+14406592615", "display_phone": "(440) 659-2615", "distance": 10156.186240911069}, {"id": "JKM8N-qeXl_cLXOFRpevEA", "alias": "wine-bar-rocky-river-rocky-river", "name": "Wine Bar Rocky River", "image_url": "https://s3-media2.fl.yelpcdn.com/bphoto/JIzATz_Zf-MzOybB2bBQNA/o.jpg", "is_closed": false, "url": "https://www.yelp.com/biz/wine-bar-rocky-river-rocky-river?adjust_creative=XiulpY4J0xx_QhC29cyq-w&utm_campaign=yelp_api_v3&utm_medium=api_v3_business_search&utm_source=XiulpY4J0xx_QhC29cyq-w", "review_count": 212, "categories": [{"alias": "wine_bars", "title": "Wine Bars"}, {"alias": "newamerican", "title": "American (New)"}], "rating": 4.0, "coordinates": {"latitude": 41.480701, "longitude": -81.840076}, "transactions": ["delivery"], "price": "$$", "location": {"address1": "1313 Linda St", "address2": "", "address3": "", "city": "Rocky River", "zip_code": "44116", "country": "US", "state": "OH", "display_address": ["1313 Linda St", "Rocky River, OH 44116"]}, "phone": "+14407994300", "display_phone": "(440) 799-4300", "distance": 9119.79718073901}, {"id": "lrcMYPgo5K1GqZFTMGqQOw", "alias": "first-watch-rocky-river-3", "name": "First Watch", "image_url": "https://s3-media2.fl.yelpcdn.com/bphoto/82JXQGu52ZPw2U10zYUmxA/o.jpg", "is_closed": false, "url": "https://www.yelp.com/biz/first-watch-rocky-river-3?adjust_creative=XiulpY4J0xx_QhC29cyq-w&utm_campaign=yelp_api_v3&utm_medium=api_v3_business_search&utm_source=XiulpY4J0xx_QhC29cyq-w", "review_count": 130, "categories": [{"alias": "breakfast_brunch", "title": "Breakfast & Brunch"}, {"alias": "cafes", "title": "Cafes"}, {"alias": "tradamerican", "title": "American (Traditional)"}], "rating": 3.5, "coordinates": {"latitude": 41.48232065, "longitude": -81.83777775}, "transactions": [], "price": "$$", "location": {"address1": "19340 Detroit Rd", "address2": null, "address3": null, "city": "Rocky River", "zip_code": "44116", "country": "US", "state": "OH", "display_address": ["19340 Detroit Rd", "Rocky River, OH 44116"]}, "phone": "+14403333529", "display_phone": "(440) 333-3529", "distance": 9381.797409279965}, {"id": "3yH-k-KzVI_urhTad_OEjw", "alias": "starbucks-north-olmsted-6", "name": "Starbucks", "image_url": "https://s3-media4.fl.yelpcdn.com/bphoto/7irEQmc9huOa2NMCy59HRg/o.jpg", "is_closed": false, "url": "https://www.yelp.com/biz/starbucks-north-olmsted-6?adjust_creative=XiulpY4J0xx_QhC29cyq-w&utm_campaign=yelp_api_v3&utm_medium=api_v3_business_search&utm_source=XiulpY4J0xx_QhC29cyq-w", "review_count": 16, "categories": [{"alias": "coffee", "title": "Coffee & Tea"}], "rating": 3.5, "coordinates": {"latitude": 41.434373, "longitude": -81.881039}, "transactions": ["delivery"], "price": "$$", "location": {"address1": "23420 Lorain Rd", "address2": "", "address3": null, "city": "North Olmsted", "zip_code": "44070", "country": "US", "state": "OH", "display_address": ["23420 Lorain Rd", "North Olmsted, OH 44070"]}, "phone": "+12166449996", "display_phone": "(216) 644-9996", "distance": 3145.2198709355134}, {"id": "DlZ6ZHn1FAKEZwnsfdJb_A", "alias": "falls-ice-cream-olmsted-falls-2", "name": "Falls Ice Cream", "image_url": "https://s3-media2.fl.yelpcdn.com/bphoto/nFcMoABrrYwBw2p25kFD0g/o.jpg", "is_closed": false, "url": "https://www.yelp.com/biz/falls-ice-cream-olmsted-falls-2?adjust_creative=XiulpY4J0xx_QhC29cyq-w&utm_campaign=yelp_api_v3&utm_medium=api_v3_business_search&utm_source=XiulpY4J0xx_QhC29cyq-w", "review_count": 45, "categories": [{"alias": "icecream", "title": "Ice Cream & Frozen Yogurt"}], "rating": 4.5, "coordinates": {"latitude": 41.37444, "longitude": -81.90226}, "transactions": ["delivery", "pickup"], "price": "$$", "location": {"address1": "8094 Columbia Rd", "address2": null, "address3": "", "city": "Olmsted Falls", "zip_code": "44138", "country": "US", "state": "OH", "display_address": ["8094 Columbia Rd", "Olmsted Falls, OH 44138"]}, "phone": "+14407825033", "display_phone": "(440) 782-5033", "distance": 5128.85614704424}, {"id": "g3QKL6Vd_kfmQABVUTtIAA", "alias": "subway-north-olmsted-6", "name": "Subway", "image_url": "https://s3-media2.fl.yelpcdn.com/bphoto/9wQNQsj8pVd7csjTm7ntlA/o.jpg", "is_closed": false, "url": "https://www.yelp.com/biz/subway-north-olmsted-6?adjust_creative=XiulpY4J0xx_QhC29cyq-w&utm_campaign=yelp_api_v3&utm_medium=api_v3_business_search&utm_source=XiulpY4J0xx_QhC29cyq-w", "review_count": 5, "categories": [{"alias": "sandwiches", "title": "Sandwiches"}, {"alias": "hotdogs", "title": "Fast Food"}], "rating": 2.0, "coordinates": {"latitude": 41.4287231813457, "longitude": -81.8890598773155}, "transactions": ["delivery", "pickup"], "price": "$", "location": {"address1": "24119 Lorain Rd", "address2": null, "address3": null, "city": "North Olmsted", "zip_code": "44070", "country": "US", "state": "OH", "display_address": ["24119 Lorain Rd", "North Olmsted, OH 44070"]}, "phone": "+14407779100", "display_phone": "(440) 777-9100", "distance": 2256.8939454299057}, {"id": "T5JkR6GkmnBhNG4R99Sicg", "alias": "pulp-juice-and-smoothie-bar-avon-2", "name": "Pulp Juice And Smoothie Bar", "image_url": "https://s3-media2.fl.yelpcdn.com/bphoto/Tppusi7Z1CTpMMmjQnIshg/o.jpg", "is_closed": false, "url": "https://www.yelp.com/biz/pulp-juice-and-smoothie-bar-avon-2?adjust_creative=XiulpY4J0xx_QhC29cyq-w&utm_campaign=yelp_api_v3&utm_medium=api_v3_business_search&utm_source=XiulpY4J0xx_QhC29cyq-w", "review_count": 15, "categories": [{"alias": "juicebars", "title": "Juice Bars & Smoothies"}, {"alias": "wraps", "title": "Wraps"}], "rating": 4.0, "coordinates": {"latitude": 41.4613501, "longitude": -81.9888151}, "transactions": ["delivery"], "price": "$", "location": {"address1": "1813 Nagel Rd", "address2": "Ste 400", "address3": null, "city": "Avon", "zip_code": "44011", "country": "US", "state": "OH", "display_address": ["1813 Nagel Rd", "Ste 400", "Avon, OH 44011"]}, "phone": "+14406958653", "display_phone": "(440) 695-8653", "distance": 7672.1227426502555}, {"id": "3889xkXPP1-ch0oazGqkAg", "alias": "speedway-middleburg-heights", "name": "Speedway", "image_url": "https://s3-media3.fl.yelpcdn.com/bphoto/RFc1yk9Y0ZiMN6Dz4YesLQ/o.jpg", "is_closed": false, "url": "https://www.yelp.com/biz/speedway-middleburg-heights?adjust_creative=XiulpY4J0xx_QhC29cyq-w&utm_campaign=yelp_api_v3&utm_medium=api_v3_business_search&utm_source=XiulpY4J0xx_QhC29cyq-w", "review_count": 4, "categories": [{"alias": "servicestations", "title": "Gas Stations"}, {"alias": "convenience", "title": "Convenience Stores"}, {"alias": "coffee", "title": "Coffee & Tea"}], "rating": 3.5, "coordinates": {"latitude": 41.372355, "longitude": -81.823386}, "transactions": ["delivery", "pickup"], "location": {"address1": "17650 Bagley Road", "address2": "", "address3": "", "city": "Middleburg Heights", "zip_code": "44130", "country": "US", "state": "OH", "display_address": ["17650 Bagley Road", "Middleburg Heights, OH 44130"]}, "phone": "+14402343193", "display_phone": "(440) 234-3193", "distance": 9176.694341553883}, {"id": "uK0yfNyxlNTy2vs793wjKw", "alias": "three-girls-cupcake-shoppe-berea", "name": "Three Girls Cupcake Shoppe", "image_url": "https://s3-media1.fl.yelpcdn.com/bphoto/ohDa14gjxdaWXE3lieuuHw/o.jpg", "is_closed": false, "url": "https://www.yelp.com/biz/three-girls-cupcake-shoppe-berea?adjust_creative=XiulpY4J0xx_QhC29cyq-w&utm_campaign=yelp_api_v3&utm_medium=api_v3_business_search&utm_source=XiulpY4J0xx_QhC29cyq-w", "review_count": 24, "categories": [{"alias": "cupcakes", "title": "Cupcakes"}, {"alias": "customcakes", "title": "Custom Cakes"}, {"alias": "bakeries", "title": "Bakeries"}], "rating": 4.5, "coordinates": {"latitude": 41.36601654886577, "longitude": -81.85312902689279}, "transactions": ["delivery"], "location": {"address1": "1 Berea Commons", "address2": "Ste 1", "address3": null, "city": "Berea", "zip_code": "44017", "country": "US", "state": "OH", "display_address": ["1 Berea Commons", "Ste 1", "Berea, OH 44017"]}, "phone": "+14406250065", "display_phone": "(440) 625-0065", "distance": 7812.194294829888}, {"id": "3X8-5D4oArbJxBENXtPE0Q", "alias": "speedway-olmsted-falls-3", "name": "Speedway", "image_url": "https://s3-media2.fl.yelpcdn.com/bphoto/oNPMAJ-_eDogbcPkAMuRgA/o.jpg", "is_closed": false, "url": "https://www.yelp.com/biz/speedway-olmsted-falls-3?adjust_creative=XiulpY4J0xx_QhC29cyq-w&utm_campaign=yelp_api_v3&utm_medium=api_v3_business_search&utm_source=XiulpY4J0xx_QhC29cyq-w", "review_count": 1, "categories": [{"alias": "servicestations", "title": "Gas Stations"}, {"alias": "convenience", "title": "Convenience Stores"}, {"alias": "coffee", "title": "Coffee & Tea"}], "rating": 1.0, "coordinates": {"latitude": 41.372448, "longitude": -81.901504}, "transactions": ["delivery", "pickup"], "location": {"address1": "8231 Columbia Road", "address2": null, "address3": null, "city": "Olmsted Falls", "zip_code": "44138", "country": "US", "state": "OH", "display_address": ["8231 Columbia Road", "Olmsted Falls, OH 44138"]}, "phone": "+14402356410", "display_phone": "(440) 235-6410", "distance": 5354.040460177125}, {"id": "aWtiHukHbJPmBPSLcrT8xg", "alias": "georgios-oven-fresh-pizza-north-olmsted-3", "name": "Georgio's Oven Fresh Pizza", "image_url": "https://s3-media1.fl.yelpcdn.com/bphoto/olLUKjh3xtxntMvrzzRr0g/o.jpg", "is_closed": false, "url": "https://www.yelp.com/biz/georgios-oven-fresh-pizza-north-olmsted-3?adjust_creative=XiulpY4J0xx_QhC29cyq-w&utm_campaign=yelp_api_v3&utm_medium=api_v3_business_search&utm_source=XiulpY4J0xx_QhC29cyq-w", "review_count": 13, "categories": [{"alias": "pizza", "title": "Pizza"}, {"alias": "salad", "title": "Salad"}, {"alias": "sandwiches", "title": "Sandwiches"}], "rating": 3.0, "coordinates": {"latitude": 41.43669, "longitude": -81.87692}, "transactions": ["delivery", "pickup"], "price": "$", "location": {"address1": "23144 Lorain Rd", "address2": null, "address3": "", "city": "North Olmsted", "zip_code": "44070", "country": "US", "state": "OH", "display_address": ["23144 Lorain Rd", "North Olmsted, OH 44070"]}, "phone": "+14407346200", "display_phone": "(440) 734-6200", "distance": 3568.7798463623635}, {"id": "0m_32NwCWsh0xjPgQzQ3mA", "alias": "master-pizza-north-ridgeville", "name": "Master Pizza", "image_url": "https://s3-media3.fl.yelpcdn.com/bphoto/WeZTbxgdRkeKZB4t5HcZ9A/o.jpg", "is_closed": false, "url": "https://www.yelp.com/biz/master-pizza-north-ridgeville?adjust_creative=XiulpY4J0xx_QhC29cyq-w&utm_campaign=yelp_api_v3&utm_medium=api_v3_business_search&utm_source=XiulpY4J0xx_QhC29cyq-w", "review_count": 5, "categories": [{"alias": "pizza", "title": "Pizza"}], "rating": 3.0, "coordinates": {"latitude": 41.39727667, "longitude": -81.99622167}, "transactions": ["pickup", "delivery"], "location": {"address1": "34263 Center Ridge Rd", "address2": null, "address3": null, "city": "North Ridgeville", "zip_code": "44039", "country": "US", "state": "OH", "display_address": ["34263 Center Ridge Rd", "North Ridgeville, OH 44039"]}, "phone": "+14402190900", "display_phone": "(440) 219-0900", "distance": 7327.329216952428}, {"id": "iMniopmf5j8nQO6Jl5pajA", "alias": "bibibop-asian-grill-westlake", "name": "BIBIBOP Asian Grill", "image_url": "https://s3-media3.fl.yelpcdn.com/bphoto/atlL2GbUuH0j0XugL7_b5w/o.jpg", "is_closed": false, "url": "https://www.yelp.com/biz/bibibop-asian-grill-westlake?adjust_creative=XiulpY4J0xx_QhC29cyq-w&utm_campaign=yelp_api_v3&utm_medium=api_v3_business_search&utm_source=XiulpY4J0xx_QhC29cyq-w", "review_count": 52, "categories": [{"alias": "asianfusion", "title": "Asian Fusion"}, {"alias": "salad", "title": "Salad"}, {"alias": "gluten_free", "title": "Gluten-Free"}], "rating": 4.0, "coordinates": {"latitude": 41.459814, "longitude": -81.952906}, "transactions": ["pickup", "delivery"], "price": "$", "location": {"address1": "224 Crocker Park Blvd", "address2": "", "address3": null, "city": "Westlake", "zip_code": "44145", "country": "US", "state": "OH", "display_address": ["224 Crocker Park Blvd", "Westlake, OH 44145"]}, "phone": "+14405029363", "display_phone": "(440) 502-9363", "distance": 5536.144005806609}, {"id": "XPXv6KGuHaIe_v6aETZPHA", "alias": "borderline-cafe-lakewood", "name": "Borderline Cafe", "image_url": "https://s3-media2.fl.yelpcdn.com/bphoto/kXDrrQ2BXIiFlbLf6sPBgw/o.jpg", "is_closed": false, "url": "https://www.yelp.com/biz/borderline-cafe-lakewood?adjust_creative=XiulpY4J0xx_QhC29cyq-w&utm_campaign=yelp_api_v3&utm_medium=api_v3_business_search&utm_source=XiulpY4J0xx_QhC29cyq-w", "review_count": 265, "categories": [{"alias": "breakfast_brunch", "title": "Breakfast & Brunch"}, {"alias": "diners", "title": "Diners"}], "rating": 4.5, "coordinates": {"latitude": 41.48225, "longitude": -81.8271}, "transactions": [], "price": "$$", "location": {"address1": "18510 Detroit Ave", "address2": "", "address3": "", "city": "Lakewood", "zip_code": "44107", "country": "US", "state": "OH", "display_address": ["18510 Detroit Ave", "Lakewood, OH 44107"]}, "phone": "+12165291949", "display_phone": "(216) 529-1949", "distance": 9988.227028357293}, {"id": "YQ8BgjttUCgyUNVv4lLVrA", "alias": "kintaro-sushi-and-hot-pot-rocky-river", "name": "Kintaro Sushi & Hot Pot", "image_url": "https://s3-media3.fl.yelpcdn.com/bphoto/iinlzrWKoIBcQomGlLkmxg/o.jpg", "is_closed": false, "url": "https://www.yelp.com/biz/kintaro-sushi-and-hot-pot-rocky-river?adjust_creative=XiulpY4J0xx_QhC29cyq-w&utm_campaign=yelp_api_v3&utm_medium=api_v3_business_search&utm_source=XiulpY4J0xx_QhC29cyq-w", "review_count": 133, "categories": [{"alias": "sushi", "title": "Sushi Bars"}, {"alias": "hotpot", "title": "Hot Pot"}], "rating": 4.0, "coordinates": {"latitude": 41.46172333, "longitude": -81.84974667}, "transactions": ["pickup", "delivery"], "price": "$$", "location": {"address1": "3111 Westgate Mall", "address2": "Ste A-128", "address3": null, "city": "Rocky River", "zip_code": "44116", "country": "US", "state": "OH", "display_address": ["3111 Westgate Mall", "Ste A-128", "Rocky River, OH 44116"]}, "phone": "+12169128196", "display_phone": "(216) 912-8196", "distance": 7034.131383928461}, {"id": "UV0lOc41rkamlhpgShL3Gg", "alias": "zoup-rocky-river", "name": "Zoup!", "image_url": "https://s3-media2.fl.yelpcdn.com/bphoto/faCZ2R4UilQgfhFiSAtQ_A/o.jpg", "is_closed": false, "url": "https://www.yelp.com/biz/zoup-rocky-river?adjust_creative=XiulpY4J0xx_QhC29cyq-w&utm_campaign=yelp_api_v3&utm_medium=api_v3_business_search&utm_source=XiulpY4J0xx_QhC29cyq-w", "review_count": 16, "categories": [{"alias": "soup", "title": "Soup"}, {"alias": "sandwiches", "title": "Sandwiches"}, {"alias": "catering", "title": "Caterers"}], "rating": 4.5, "coordinates": {"latitude": 41.45927597, "longitude": -81.8586907}, "transactions": ["pickup", "delivery"], "price": "$$", "location": {"address1": "21619 Center Ridge Rd", "address2": "", "address3": null, "city": "Rocky River", "zip_code": "44116", "country": "US", "state": "OH", "display_address": ["21619 Center Ridge Rd", "Rocky River, OH 44116"]}, "phone": "+14406573200", "display_phone": "(440) 657-3200", "distance": 6327.840661541668}, {"id": "j8Qj1bGQ1OTahmsKERWwwQ", "alias": "shinto-westlake-westlake", "name": "Shinto Japanese Steakhouse and Sushi Bar -Westlake", "image_url": "https://s3-media1.fl.yelpcdn.com/bphoto/8VYdL1OY9Vq-xtFe6RPVgQ/o.jpg", "is_closed": false, "url": "https://www.yelp.com/biz/shinto-westlake-westlake?adjust_creative=XiulpY4J0xx_QhC29cyq-w&utm_campaign=yelp_api_v3&utm_medium=api_v3_business_search&utm_source=XiulpY4J0xx_QhC29cyq-w", "review_count": 75, "categories": [{"alias": "japanese", "title": "Japanese"}, {"alias": "steak", "title": "Steakhouses"}, {"alias": "sushi", "title": "Sushi Bars"}], "rating": 3.0, "coordinates": {"latitude": 41.47451, "longitude": -81.90077}, "transactions": [], "location": {"address1": "857 Columbia Rd", "address2": null, "address3": "", "city": "Westlake", "zip_code": "44145", "country": "US", "state": "OH", "display_address": ["857 Columbia Rd", "Westlake, OH 44145"]}, "phone": "+14407725017", "display_phone": "(440) 772-5017", "distance": 6170.874827084688}, {"id": "sLOpaIDs2OQosN2cJWVEsg", "alias": "the-original-popcorn-house-westlake-2", "name": "The Original Popcorn House", "image_url": "https://s3-media4.fl.yelpcdn.com/bphoto/rVLlyQK8LVcpQ8CEXA_Lbg/o.jpg", "is_closed": false, "url": "https://www.yelp.com/biz/the-original-popcorn-house-westlake-2?adjust_creative=XiulpY4J0xx_QhC29cyq-w&utm_campaign=yelp_api_v3&utm_medium=api_v3_business_search&utm_source=XiulpY4J0xx_QhC29cyq-w", "review_count": 6, "categories": [{"alias": "popcorn", "title": "Popcorn Shops"}], "rating": 4.5, "coordinates": {"latitude": 41.46028, "longitude": -81.95247}, "transactions": ["pickup", "delivery"], "price": "$$", "location": {"address1": "24 Main St", "address2": null, "address3": "", "city": "Westlake", "zip_code": "44145", "country": "US", "state": "OH", "display_address": ["24 Main St", "Westlake, OH 44145"]}, "phone": "+14406176097", "display_phone": "(440) 617-6097", "distance": 5558.985028245392}, {"id": "5Gj8twqkHxMunpNJLn5Hjw", "alias": "arashi-japan-westlake-2", "name": "Arashi Japan", "image_url": "https://s3-media2.fl.yelpcdn.com/bphoto/8rgJXX3BcygK3VpMzbOjxw/o.jpg", "is_closed": false, "url": "https://www.yelp.com/biz/arashi-japan-westlake-2?adjust_creative=XiulpY4J0xx_QhC29cyq-w&utm_campaign=yelp_api_v3&utm_medium=api_v3_business_search&utm_source=XiulpY4J0xx_QhC29cyq-w", "review_count": 176, "categories": [{"alias": "japanese", "title": "Japanese"}, {"alias": "sushi", "title": "Sushi Bars"}, {"alias": "steak", "title": "Steakhouses"}], "rating": 3.0, "coordinates": {"latitude": 41.4647077881, "longitude": -81.9518462417}, "transactions": ["pickup", "delivery"], "price": "$$", "location": {"address1": "30006 Detroit Rd", "address2": null, "address3": "", "city": "Westlake", "zip_code": "44145", "country": "US", "state": "OH", "display_address": ["30006 Detroit Rd", "Westlake, OH 44145"]}, "phone": "+14408928888", "display_phone": "(440) 892-8888", "distance": 5933.928967285231}, {"id": "C9ZBITy4NAqppJ-IPGzttw", "alias": "speedway-bay-village", "name": "Speedway", "image_url": "https://s3-media2.fl.yelpcdn.com/bphoto/wujFrgHJ_XgsLQTzIHxNAA/o.jpg", "is_closed": false, "url": "https://www.yelp.com/biz/speedway-bay-village?adjust_creative=XiulpY4J0xx_QhC29cyq-w&utm_campaign=yelp_api_v3&utm_medium=api_v3_business_search&utm_source=XiulpY4J0xx_QhC29cyq-w", "review_count": 5, "categories": [{"alias": "servicestations", "title": "Gas Stations"}, {"alias": "convenience", "title": "Convenience Stores"}, {"alias": "coffee", "title": "Coffee & Tea"}], "rating": 2.0, "coordinates": {"latitude": 41.47748, "longitude": -81.90181}, "transactions": ["pickup", "delivery"], "location": {"address1": "630 Columbia Road", "address2": "", "address3": "", "city": "Bay Village", "zip_code": "44140", "country": "US", "state": "OH", "display_address": ["630 Columbia Road", "Bay Village, OH 44140"]}, "phone": "+14408920344", "display_phone": "(440) 892-0344", "distance": 6483.153955202168}, {"id": "dkBOmWWYcRFhItVAr3HFiA", "alias": "fresh-thyme-market-westlake", "name": "Fresh Thyme Market", "image_url": "https://s3-media4.fl.yelpcdn.com/bphoto/PzJkh4xrwHrGQPYPD7Dfhw/o.jpg", "is_closed": false, "url": "https://www.yelp.com/biz/fresh-thyme-market-westlake?adjust_creative=XiulpY4J0xx_QhC29cyq-w&utm_campaign=yelp_api_v3&utm_medium=api_v3_business_search&utm_source=XiulpY4J0xx_QhC29cyq-w", "review_count": 25, "categories": [{"alias": "grocery", "title": "Grocery"}, {"alias": "farmersmarket", "title": "Farmers Market"}, {"alias": "vitaminssupplements", "title": "Vitamins & Supplements"}], "rating": 3.5, "coordinates": {"latitude": 41.4655403, "longitude": -81.9525311}, "transactions": [], "location": {"address1": "30016 Detroit Rd", "address2": "", "address3": null, "city": "Westlake", "zip_code": "44145", "country": "US", "state": "OH", "display_address": ["30016 Detroit Rd", "Westlake, OH 44145"]}, "phone": "+14408726910", "display_phone": "(440) 872-6910", "distance": 6042.657164066551}, {"id": "x8oiVIsjfdHUBME1IqCgYg", "alias": "georgetown-restaurant-lakewood-2", "name": "Georgetown Restaurant", "image_url": "https://s3-media2.fl.yelpcdn.com/bphoto/rsXdD76PR-wq7oGIV-lfyg/o.jpg", "is_closed": false, "url": "https://www.yelp.com/biz/georgetown-restaurant-lakewood-2?adjust_creative=XiulpY4J0xx_QhC29cyq-w&utm_campaign=yelp_api_v3&utm_medium=api_v3_business_search&utm_source=XiulpY4J0xx_QhC29cyq-w", "review_count": 173, "categories": [{"alias": "bars", "title": "Bars"}, {"alias": "tradamerican", "title": "American (Traditional)"}], "rating": 3.0, "coordinates": {"latitude": 41.48184, "longitude": -81.8267599}, "transactions": ["delivery"], "price": "$$", "location": {"address1": "18515 Detroit Ave", "address2": null, "address3": "", "city": "Lakewood", "zip_code": "44107", "country": "US", "state": "OH", "display_address": ["18515 Detroit Ave", "Lakewood, OH 44107"]}, "phone": "+12162213500", "display_phone": "(216) 221-3500", "distance": 9986.033782147671}, {"id": "_hyTrtBKh9YJxnV--ixJVQ", "alias": "dq-orange-julius-rocky-river", "name": "DQ / Orange Julius", "image_url": "https://s3-media1.fl.yelpcdn.com/bphoto/lVEZZKI0IbpHxnHuFXR8SQ/o.jpg", "is_closed": false, "url": "https://www.yelp.com/biz/dq-orange-julius-rocky-river?adjust_creative=XiulpY4J0xx_QhC29cyq-w&utm_campaign=yelp_api_v3&utm_medium=api_v3_business_search&utm_source=XiulpY4J0xx_QhC29cyq-w", "review_count": 13, "categories": [{"alias": "icecream", "title": "Ice Cream & Frozen Yogurt"}, {"alias": "hotdogs", "title": "Fast Food"}, {"alias": "burgers", "title": "Burgers"}], "rating": 3.5, "coordinates": {"latitude": 41.45923, "longitude": -81.85957}, "transactions": ["pickup", "delivery"], "price": "$", "location": {"address1": "21665 Center Ridge Rd", "address2": "", "address3": "", "city": "Rocky River", "zip_code": "44116", "country": "US", "state": "OH", "display_address": ["21665 Center Ridge Rd", "Rocky River, OH 44116"]}, "phone": "+14403337763", "display_phone": "(440) 333-7763", "distance": 6271.569459873227}, {"id": "NzD6xiU6OwyesY6wMZq5Gg", "alias": "dariview-fairview-park", "name": "Dariview", "image_url": "https://s3-media3.fl.yelpcdn.com/bphoto/AjFj--XqOTQO8v4g0mjiAQ/o.jpg", "is_closed": false, "url": "https://www.yelp.com/biz/dariview-fairview-park?adjust_creative=XiulpY4J0xx_QhC29cyq-w&utm_campaign=yelp_api_v3&utm_medium=api_v3_business_search&utm_source=XiulpY4J0xx_QhC29cyq-w", "review_count": 22, "categories": [{"alias": "icecream", "title": "Ice Cream & Frozen Yogurt"}], "rating": 4.5, "coordinates": {"latitude": 41.4417905, "longitude": -81.8643071}, "transactions": [], "price": "$", "location": {"address1": "22004 Lorain Rd", "address2": "", "address3": "", "city": "Fairview Park", "zip_code": "44126", "country": "US", "state": "OH", "display_address": ["22004 Lorain Rd", "Fairview Park, OH 44126"]}, "phone": "+14407344797", "display_phone": "(440) 734-4797", "distance": 4775.567206256665}, {"id": "wTNWq7jrCZD1q2hSjUtTXg", "alias": "si-senor-tacos-and-tequila-bar-westlake", "name": "Si Senor Tacos & Tequila Bar", "image_url": "https://s3-media1.fl.yelpcdn.com/bphoto/JRwGxOwlkUQTeP5_nXqMGg/o.jpg", "is_closed": false, "url": "https://www.yelp.com/biz/si-senor-tacos-and-tequila-bar-westlake?adjust_creative=XiulpY4J0xx_QhC29cyq-w&utm_campaign=yelp_api_v3&utm_medium=api_v3_business_search&utm_source=XiulpY4J0xx_QhC29cyq-w", "review_count": 164, "categories": [{"alias": "mexican", "title": "Mexican"}], "rating": 3.5, "coordinates": {"latitude": 41.4741637767021, "longitude": -81.8974881246686}, "transactions": ["pickup", "delivery"], "price": "$$", "location": {"address1": "25048 Sperry Rd", "address2": "", "address3": "", "city": "Westlake", "zip_code": "44145", "country": "US", "state": "OH", "display_address": ["25048 Sperry Rd", "Westlake, OH 44145"]}, "phone": "+14402500882", "display_phone": "(440) 250-0882", "distance": 6187.68749472525}, {"id": "CF7AmDSZhGLrkP3iZrlm-A", "alias": "subway-strongsville-6", "name": "Subway", "image_url": "https://s3-media4.fl.yelpcdn.com/bphoto/ioksTFRQWPxsluX5XdLGTg/o.jpg", "is_closed": false, "url": "https://www.yelp.com/biz/subway-strongsville-6?adjust_creative=XiulpY4J0xx_QhC29cyq-w&utm_campaign=yelp_api_v3&utm_medium=api_v3_business_search&utm_source=XiulpY4J0xx_QhC29cyq-w", "review_count": 9, "categories": [{"alias": "sandwiches", "title": "Sandwiches"}, {"alias": "hotdogs", "title": "Fast Food"}], "rating": 3.0, "coordinates": {"latitude": 41.3461696, "longitude": -81.8197714}, "transactions": ["pickup", "delivery"], "price": "$", "location": {"address1": "8585 Pearl Rd", "address2": null, "address3": null, "city": "Strongsville", "zip_code": "44136", "country": "US", "state": "OH", "display_address": ["8585 Pearl Rd", "Strongsville, OH 44136"]}, "phone": "+14408260998", "display_phone": "(440) 826-0998", "distance": 11315.036107272545}, {"id": "kjaiVaxNHnNp536WjFjx-A", "alias": "speedway-north-ridgeville-2", "name": "Speedway", "image_url": "https://s3-media1.fl.yelpcdn.com/bphoto/B9sGeT-lCCcAzOXMf8sluA/o.jpg", "is_closed": false, "url": "https://www.yelp.com/biz/speedway-north-ridgeville-2?adjust_creative=XiulpY4J0xx_QhC29cyq-w&utm_campaign=yelp_api_v3&utm_medium=api_v3_business_search&utm_source=XiulpY4J0xx_QhC29cyq-w", "review_count": 1, "categories": [{"alias": "servicestations", "title": "Gas Stations"}, {"alias": "convenience", "title": "Convenience Stores"}, {"alias": "coffee", "title": "Coffee & Tea"}], "rating": 3.0, "coordinates": {"latitude": 41.394, "longitude": -82.00698}, "transactions": ["pickup", "delivery"], "location": {"address1": "35066 Center Ridge Road", "address2": null, "address3": null, "city": "North Ridgeville", "zip_code": "44039", "country": "US", "state": "OH", "display_address": ["35066 Center Ridge Road", "North Ridgeville, OH 44039"]}, "phone": "+14403272091", "display_phone": "(440) 327-2091", "distance": 8312.52214131665}, {"id": "d9l_nsWY66E8aaOAKZ4SDQ", "alias": "beerhead-bar-and-eatery-avon", "name": "Beerhead Bar & Eatery", "image_url": "https://s3-media3.fl.yelpcdn.com/bphoto/FvbRcQ-b5NneXXWYUwXC4Q/o.jpg", "is_closed": false, "url": "https://www.yelp.com/biz/beerhead-bar-and-eatery-avon?adjust_creative=XiulpY4J0xx_QhC29cyq-w&utm_campaign=yelp_api_v3&utm_medium=api_v3_business_search&utm_source=XiulpY4J0xx_QhC29cyq-w", "review_count": 70, "categories": [{"alias": "beerbar", "title": "Beer Bar"}, {"alias": "waffles", "title": "Waffles"}, {"alias": "breakfast_brunch", "title": "Breakfast & Brunch"}], "rating": 3.5, "coordinates": {"latitude": 41.46076457036254, "longitude": -81.98786995194327}, "transactions": ["pickup", "delivery"], "location": {"address1": "1813 Nagel Rd", "address2": null, "address3": "", "city": "Avon", "zip_code": "44011", "country": "US", "state": "OH", "display_address": ["1813 Nagel Rd", "Avon, OH 44011"]}, "phone": "+14406950347", "display_phone": "(440) 695-0347", "distance": 7700.751317107899}, {"id": "cDmNnYm56rdjyIhwDH9sNQ", "alias": "burning-river-coffee-lakewood-2", "name": "Burning River Coffee", "image_url": "https://s3-media2.fl.yelpcdn.com/bphoto/NpRhZptN9StPUCVaQ0hdrw/o.jpg", "is_closed": false, "url": "https://www.yelp.com/biz/burning-river-coffee-lakewood-2?adjust_creative=XiulpY4J0xx_QhC29cyq-w&utm_campaign=yelp_api_v3&utm_medium=api_v3_business_search&utm_source=XiulpY4J0xx_QhC29cyq-w", "review_count": 54, "categories": [{"alias": "coffee", "title": "Coffee & Tea"}, {"alias": "bakeries", "title": "Bakeries"}], "rating": 4.5, "coordinates": {"latitude": 41.48558, "longitude": -81.81652}, "transactions": ["pickup", "delivery"], "price": "$$", "location": {"address1": "17116 Detroit Ave", "address2": null, "address3": "", "city": "Lakewood", "zip_code": "44107", "country": "US", "state": "OH", "display_address": ["17116 Detroit Ave", "Lakewood, OH 44107"]}, "phone": "+12167126720", "display_phone": "(216) 712-6720", "distance": 10893.10811712671}, {"id": "9QdITfTSzG3ZERXwgqG33g", "alias": "main-event-avon-avon", "name": "Main Event Avon", "image_url": "https://s3-media4.fl.yelpcdn.com/bphoto/pXXzbOPcjPu4HOWrc-sSiQ/o.jpg", "is_closed": false, "url": "https://www.yelp.com/biz/main-event-avon-avon?adjust_creative=XiulpY4J0xx_QhC29cyq-w&utm_campaign=yelp_api_v3&utm_medium=api_v3_business_search&utm_source=XiulpY4J0xx_QhC29cyq-w", "review_count": 85, "categories": [{"alias": "arcades", "title": "Arcades"}, {"alias": "bowling", "title": "Bowling"}, {"alias": "tradamerican", "title": "American (Traditional)"}], "rating": 2.5, "coordinates": {"latitude": 41.4656556, "longitude": -82.0110111}, "transactions": ["delivery"], "location": {"address1": "35605 Chester Rd", "address2": "", "address3": null, "city": "Avon", "zip_code": "44011", "country": "US", "state": "OH", "display_address": ["35605 Chester Rd", "Avon, OH 44011"]}, "phone": "+14403980611", "display_phone": "(440) 398-0611", "distance": 9603.300445769655}, {"id": "cPLwQxjBEp9wi-SnJqn5MQ", "alias": "whole-foods-market-rocky-river", "name": "Whole Foods Market", "image_url": "https://s3-media4.fl.yelpcdn.com/bphoto/lPoBek9vTifizGa4vxY7Qw/o.jpg", "is_closed": false, "url": "https://www.yelp.com/biz/whole-foods-market-rocky-river?adjust_creative=XiulpY4J0xx_QhC29cyq-w&utm_campaign=yelp_api_v3&utm_medium=api_v3_business_search&utm_source=XiulpY4J0xx_QhC29cyq-w", "review_count": 109, "categories": [{"alias": "organic_stores", "title": "Organic Stores"}, {"alias": "grocery", "title": "Grocery"}, {"alias": "healthmarkets", "title": "Health Markets"}], "rating": 3.5, "coordinates": {"latitude": 41.478792, "longitude": -81.840031}, "transactions": [], "price": "$$$", "location": {"address1": "19607 Detroit Rd", "address2": "", "address3": "", "city": "Rocky River", "zip_code": "44116", "country": "US", "state": "OH", "display_address": ["19607 Detroit Rd", "Rocky River, OH 44116"]}, "phone": "+14405963440", "display_phone": "(440) 596-3440", "distance": 8965.936947050433}, {"id": "x8oiVIsjfdHUBME1IqCgYg", "alias": "georgetown-restaurant-lakewood-2", "name": "Georgetown Restaurant", "image_url": "https://s3-media2.fl.yelpcdn.com/bphoto/rsXdD76PR-wq7oGIV-lfyg/o.jpg", "is_closed": false, "url": "https://www.yelp.com/biz/georgetown-restaurant-lakewood-2?adjust_creative=XiulpY4J0xx_QhC29cyq-w&utm_campaign=yelp_api_v3&utm_medium=api_v3_business_search&utm_source=XiulpY4J0xx_QhC29cyq-w", "review_count": 173, "categories": [{"alias": "bars", "title": "Bars"}, {"alias": "tradamerican", "title": "American (Traditional)"}], "rating": 3.0, "coordinates": {"latitude": 41.48184, "longitude": -81.8267599}, "transactions": ["delivery"], "price": "$$", "location": {"address1": "18515 Detroit Ave", "address2": null, "address3": "", "city": "Lakewood", "zip_code": "44107", "country": "US", "state": "OH", "display_address": ["18515 Detroit Ave", "Lakewood, OH 44107"]}, "phone": "+12162213500", "display_phone": "(216) 221-3500", "distance": 10784.136130170335}, {"id": "rQd2dvzz-V4cjHbW9pf06g", "alias": "starbucks-westlake-3", "name": "Starbucks", "image_url": "https://s3-media4.fl.yelpcdn.com/bphoto/GTOlafgfy7nG1f8luUAmlg/o.jpg", "is_closed": false, "url": "https://www.yelp.com/biz/starbucks-westlake-3?adjust_creative=XiulpY4J0xx_QhC29cyq-w&utm_campaign=yelp_api_v3&utm_medium=api_v3_business_search&utm_source=XiulpY4J0xx_QhC29cyq-w", "review_count": 18, "categories": [{"alias": "coffee", "title": "Coffee & Tea"}], "rating": 3.5, "coordinates": {"latitude": 41.456613, "longitude": -81.951336}, "transactions": ["delivery"], "price": "$$", "location": {"address1": "269 Main St", "address2": "", "address3": null, "city": "Westlake", "zip_code": "44145", "country": "US", "state": "OH", "display_address": ["269 Main St", "Westlake, OH 44145"]}, "phone": "+12166308070", "display_phone": "(216) 630-8070", "distance": 5078.733651207485}, {"id": "dkBOmWWYcRFhItVAr3HFiA", "alias": "fresh-thyme-market-westlake", "name": "Fresh Thyme Market", "image_url": "https://s3-media4.fl.yelpcdn.com/bphoto/PzJkh4xrwHrGQPYPD7Dfhw/o.jpg", "is_closed": false, "url": "https://www.yelp.com/biz/fresh-thyme-market-westlake?adjust_creative=XiulpY4J0xx_QhC29cyq-w&utm_campaign=yelp_api_v3&utm_medium=api_v3_business_search&utm_source=XiulpY4J0xx_QhC29cyq-w", "review_count": 25, "categories": [{"alias": "grocery", "title": "Grocery"}, {"alias": "farmersmarket", "title": "Farmers Market"}, {"alias": "vitaminssupplements", "title": "Vitamins & Supplements"}], "rating": 3.5, "coordinates": {"latitude": 41.4655403, "longitude": -81.9525311}, "transactions": [], "location": {"address1": "30016 Detroit Rd", "address2": "", "address3": null, "city": "Westlake", "zip_code": "44145", "country": "US", "state": "OH", "display_address": ["30016 Detroit Rd", "Westlake, OH 44145"]}, "phone": "+14408726910", "display_phone": "(440) 872-6910", "distance": 6011.20989339029}, {"id": "uFL4KroMu-dFRsSJrcFzVQ", "alias": "bar-louie-westlake-westlake-3", "name": "Bar Louie - Westlake", "image_url": "https://s3-media4.fl.yelpcdn.com/bphoto/QD6d75Vs1t6Ey2w0q_DqKg/o.jpg", "is_closed": false, "url": "https://www.yelp.com/biz/bar-louie-westlake-westlake-3?adjust_creative=XiulpY4J0xx_QhC29cyq-w&utm_campaign=yelp_api_v3&utm_medium=api_v3_business_search&utm_source=XiulpY4J0xx_QhC29cyq-w", "review_count": 260, "categories": [{"alias": "bars", "title": "Bars"}, {"alias": "newamerican", "title": "American (New)"}, {"alias": "gastropubs", "title": "Gastropubs"}], "rating": 3.0, "coordinates": {"latitude": 41.46054315, "longitude": -81.9521102}, "transactions": ["delivery", "pickup"], "price": "$$", "location": {"address1": "9 Main St", "address2": "", "address3": "", "city": "Westlake", "zip_code": "44145", "country": "US", "state": "OH", "display_address": ["9 Main St", "Westlake, OH 44145"]}, "phone": "+14406414400", "display_phone": "(440) 641-4400", "distance": 5495.741847142947}, {"id": "cPLwQxjBEp9wi-SnJqn5MQ", "alias": "whole-foods-market-rocky-river", "name": "Whole Foods Market", "image_url": "https://s3-media4.fl.yelpcdn.com/bphoto/lPoBek9vTifizGa4vxY7Qw/o.jpg", "is_closed": false, "url": "https://www.yelp.com/biz/whole-foods-market-rocky-river?adjust_creative=XiulpY4J0xx_QhC29cyq-w&utm_campaign=yelp_api_v3&utm_medium=api_v3_business_search&utm_source=XiulpY4J0xx_QhC29cyq-w", "review_count": 109, "categories": [{"alias": "organic_stores", "title": "Organic Stores"}, {"alias": "grocery", "title": "Grocery"}, {"alias": "healthmarkets", "title": "Health Markets"}], "rating": 3.5, "coordinates": {"latitude": 41.478792, "longitude": -81.840031}, "transactions": [], "price": "$$$", "location": {"address1": "19607 Detroit Rd", "address2": "", "address3": "", "city": "Rocky River", "zip_code": "44116", "country": "US", "state": "OH", "display_address": ["19607 Detroit Rd", "Rocky River, OH 44116"]}, "phone": "+14405963440", "display_phone": "(440) 596-3440", "distance": 9749.880670565839}, {"id": "ssIMJ_PB7rTbtvjL_us4zw", "alias": "heinens-grocery-store-avon-5", "name": "Heinen's Grocery Store", "image_url": "https://s3-media4.fl.yelpcdn.com/bphoto/MA9c1EMDGunmw-te8Q55eA/o.jpg", "is_closed": false, "url": "https://www.yelp.com/biz/heinens-grocery-store-avon-5?adjust_creative=XiulpY4J0xx_QhC29cyq-w&utm_campaign=yelp_api_v3&utm_medium=api_v3_business_search&utm_source=XiulpY4J0xx_QhC29cyq-w", "review_count": 30, "categories": [{"alias": "grocery", "title": "Grocery"}, {"alias": "healthmarkets", "title": "Health Markets"}], "rating": 4.0, "coordinates": {"latitude": 41.4594971, "longitude": -82.0191895}, "transactions": [], "price": "$$$", "location": {"address1": "35980 Detroit Rd", "address2": "", "address3": "", "city": "Avon", "zip_code": "44011", "country": "US", "state": "OH", "display_address": ["35980 Detroit Rd", "Avon, OH 44011"]}, "phone": "+14409377660", "display_phone": "(440) 937-7660", "distance": 9387.865818532391}, {"id": "wmGJWlimnBK909IEgKVIIA", "alias": "trader-joes-westlake", "name": "Trader Joe's", "image_url": "https://s3-media1.fl.yelpcdn.com/bphoto/gO7q01waV-bR7E-9rvfZEw/o.jpg", "is_closed": false, "url": "https://www.yelp.com/biz/trader-joes-westlake?adjust_creative=XiulpY4J0xx_QhC29cyq-w&utm_campaign=yelp_api_v3&utm_medium=api_v3_business_search&utm_source=XiulpY4J0xx_QhC29cyq-w", "review_count": 102, "categories": [{"alias": "grocery", "title": "Grocery"}], "rating": 4.0, "coordinates": {"latitude": 41.456795, "longitude": -81.9513}, "transactions": [], "price": "$$", "location": {"address1": "175 Market St", "address2": null, "address3": "", "city": "Westlake", "zip_code": "44145", "country": "US", "state": "OH", "display_address": ["175 Market St", "Westlake, OH 44145"]}, "phone": "+14402501592", "display_phone": "(440) 250-1592", "distance": 5095.108341241326}, {"id": "o9ZQ7uexhJByS0D3bwPbzA", "alias": "breadsmith-lakewood", "name": "Breadsmith", "image_url": "https://s3-media4.fl.yelpcdn.com/bphoto/LARQEioIm2HQObARJKimVA/o.jpg", "is_closed": false, "url": "https://www.yelp.com/biz/breadsmith-lakewood?adjust_creative=XiulpY4J0xx_QhC29cyq-w&utm_campaign=yelp_api_v3&utm_medium=api_v3_business_search&utm_source=XiulpY4J0xx_QhC29cyq-w", "review_count": 64, "categories": [{"alias": "bakeries", "title": "Bakeries"}], "rating": 4.5, "coordinates": {"latitude": 41.48401, "longitude": -81.82297}, "transactions": [], "price": "$", "location": {"address1": "18101 Detroit Ave", "address2": "", "address3": "", "city": "Lakewood", "zip_code": "44107", "country": "US", "state": "OH", "display_address": ["18101 Detroit Ave", "Lakewood, OH 44107"]}, "phone": "+12165298443", "display_phone": "(216) 529-8443", "distance": 11169.196172409585}, {"id": "3yH-k-KzVI_urhTad_OEjw", "alias": "starbucks-north-olmsted-6", "name": "Starbucks", "image_url": "https://s3-media4.fl.yelpcdn.com/bphoto/7irEQmc9huOa2NMCy59HRg/o.jpg", "is_closed": false, "url": "https://www.yelp.com/biz/starbucks-north-olmsted-6?adjust_creative=XiulpY4J0xx_QhC29cyq-w&utm_campaign=yelp_api_v3&utm_medium=api_v3_business_search&utm_source=XiulpY4J0xx_QhC29cyq-w", "review_count": 16, "categories": [{"alias": "coffee", "title": "Coffee & Tea"}], "rating": 3.5, "coordinates": {"latitude": 41.434373, "longitude": -81.881039}, "transactions": ["delivery"], "price": "$$", "location": {"address1": "23420 Lorain Rd", "address2": "", "address3": null, "city": "North Olmsted", "zip_code": "44070", "country": "US", "state": "OH", "display_address": ["23420 Lorain Rd", "North Olmsted, OH 44070"]}, "phone": "+12166449996", "display_phone": "(216) 644-9996", "distance": 3975.4236011663093}, {"id": "kjaiVaxNHnNp536WjFjx-A", "alias": "speedway-north-ridgeville-2", "name": "Speedway", "image_url": "https://s3-media1.fl.yelpcdn.com/bphoto/B9sGeT-lCCcAzOXMf8sluA/o.jpg", "is_closed": false, "url": "https://www.yelp.com/biz/speedway-north-ridgeville-2?adjust_creative=XiulpY4J0xx_QhC29cyq-w&utm_campaign=yelp_api_v3&utm_medium=api_v3_business_search&utm_source=XiulpY4J0xx_QhC29cyq-w", "review_count": 1, "categories": [{"alias": "servicestations", "title": "Gas Stations"}, {"alias": "convenience", "title": "Convenience Stores"}, {"alias": "coffee", "title": "Coffee & Tea"}], "rating": 3.0, "coordinates": {"latitude": 41.394, "longitude": -82.00698}, "transactions": ["delivery", "pickup"], "location": {"address1": "35066 Center Ridge Road", "address2": null, "address3": null, "city": "North Ridgeville", "zip_code": "44039", "country": "US", "state": "OH", "display_address": ["35066 Center Ridge Road", "North Ridgeville, OH 44039"]}, "phone": "+14403272091", "display_phone": "(440) 327-2091", "distance": 7486.120491597507}, {"id": "QY5GjSZkX0CmhhejaZwbBA", "alias": "starbucks-berea", "name": "Starbucks", "image_url": "https://s3-media2.fl.yelpcdn.com/bphoto/7IxJJRocmWsBxnBnA0gUmA/o.jpg", "is_closed": false, "url": "https://www.yelp.com/biz/starbucks-berea?adjust_creative=XiulpY4J0xx_QhC29cyq-w&utm_campaign=yelp_api_v3&utm_medium=api_v3_business_search&utm_source=XiulpY4J0xx_QhC29cyq-w", "review_count": 10, "categories": [{"alias": "coffee", "title": "Coffee & Tea"}], "rating": 4.0, "coordinates": {"latitude": 41.368683, "longitude": -81.852745}, "transactions": ["delivery"], "location": {"address1": "106 Front St", "address2": null, "address3": "Baldwin Wallace Front Street", "city": "Berea", "zip_code": "44017", "country": "US", "state": "OH", "display_address": ["106 Front St", "Baldwin Wallace Front Street", "Berea, OH 44017"]}, "phone": "+14408262005", "display_phone": "(440) 826-2005", "distance": 7866.941344684091}, {"id": "pfKRzf2-Mna36bJ4KgKIxg", "alias": "brown-sugar-thai-cuisine-rocky-river", "name": "Brown Sugar Thai Cuisine", "image_url": "https://s3-media2.fl.yelpcdn.com/bphoto/Rizbhb-0mFbkX3Az1BnmsA/o.jpg", "is_closed": false, "url": "https://www.yelp.com/biz/brown-sugar-thai-cuisine-rocky-river?adjust_creative=XiulpY4J0xx_QhC29cyq-w&utm_campaign=yelp_api_v3&utm_medium=api_v3_business_search&utm_source=XiulpY4J0xx_QhC29cyq-w", "review_count": 117, "categories": [{"alias": "thai", "title": "Thai"}], "rating": 3.5, "coordinates": {"latitude": 41.4647380392225, "longitude": -81.8439335508532}, "transactions": ["delivery", "pickup"], "price": "$$", "location": {"address1": "20130 Ctr Ridge Rd", "address2": "", "address3": "", "city": "Rocky River", "zip_code": "44116", "country": "US", "state": "OH", "display_address": ["20130 Ctr Ridge Rd", "Rocky River, OH 44116"]}, "phone": "+14403314110", "display_phone": "(440) 331-4110", "distance": 8455.39095902176}, {"id": "wv6LOnEpveAY37yGRHDAzQ", "alias": "bibibop-asian-grill-fairview-park-3", "name": "BIBIBOP Asian Grill", "image_url": "https://s3-media4.fl.yelpcdn.com/bphoto/5EUJjYLKOVvcC-1awZzkSw/o.jpg", "is_closed": false, "url": "https://www.yelp.com/biz/bibibop-asian-grill-fairview-park-3?adjust_creative=XiulpY4J0xx_QhC29cyq-w&utm_campaign=yelp_api_v3&utm_medium=api_v3_business_search&utm_source=XiulpY4J0xx_QhC29cyq-w", "review_count": 20, "categories": [{"alias": "salad", "title": "Salad"}, {"alias": "asianfusion", "title": "Asian Fusion"}, {"alias": "gluten_free", "title": "Gluten-Free"}], "rating": 4.0, "coordinates": {"latitude": 41.4615742, "longitude": -81.84976104313023}, "transactions": ["delivery", "pickup"], "location": {"address1": "3091 Westgate Mall", "address2": "", "address3": null, "city": "Fairview Park", "zip_code": "44126", "country": "US", "state": "OH", "display_address": ["3091 Westgate Mall", "Fairview Park, OH 44126"]}, "phone": "+14405531599", "display_phone": "(440) 553-1599", "distance": 7856.936719682087}, {"id": "yA8iKH7GNFzA8jgyvjAg3g", "alias": "dave-and-busters-westlake-cleveland-westlake", "name": "Dave & Buster's Westlake - Cleveland", "image_url": "https://s3-media2.fl.yelpcdn.com/bphoto/LT22JlnLHWf7CMHo17xVeA/o.jpg", "is_closed": false, "url": "https://www.yelp.com/biz/dave-and-busters-westlake-cleveland-westlake?adjust_creative=XiulpY4J0xx_QhC29cyq-w&utm_campaign=yelp_api_v3&utm_medium=api_v3_business_search&utm_source=XiulpY4J0xx_QhC29cyq-w", "review_count": 215, "categories": [{"alias": "tradamerican", "title": "American (Traditional)"}, {"alias": "arcades", "title": "Arcades"}, {"alias": "sportsbars", "title": "Sports Bars"}], "rating": 2.5, "coordinates": {"latitude": 41.47324287656872, "longitude": -81.90555675851888}, "transactions": ["delivery", "pickup"], "price": "$$", "location": {"address1": "25735 1st St", "address2": "", "address3": "", "city": "Westlake", "zip_code": "44145", "country": "US", "state": "OH", "display_address": ["25735 1st St", "Westlake, OH 44145"]}, "phone": "+14408921415", "display_phone": "(440) 892-1415", "distance": 6466.52372772152}, {"id": "1au33I8ExUbacBpVEQHkQQ", "alias": "feniks-frozen-custard-avon-lake", "name": "Fenik's Frozen Custard", "image_url": "https://s3-media2.fl.yelpcdn.com/bphoto/ci3kKRiPPIFPiEwWgEl98g/o.jpg", "is_closed": false, "url": "https://www.yelp.com/biz/feniks-frozen-custard-avon-lake?adjust_creative=XiulpY4J0xx_QhC29cyq-w&utm_campaign=yelp_api_v3&utm_medium=api_v3_business_search&utm_source=XiulpY4J0xx_QhC29cyq-w", "review_count": 42, "categories": [{"alias": "icecream", "title": "Ice Cream & Frozen Yogurt"}, {"alias": "gelato", "title": "Gelato"}], "rating": 4.5, "coordinates": {"latitude": 41.48328, "longitude": -82.019745}, "transactions": [], "price": "$", "location": {"address1": "684 Avon Belden Rd", "address2": "Ste E", "address3": null, "city": "Avon Lake", "zip_code": "44012", "country": "US", "state": "OH", "display_address": ["684 Avon Belden Rd", "Ste E", "Avon Lake, OH 44012"]}, "phone": "", "display_phone": "", "distance": 11007.410881993523}, {"id": "NzD6xiU6OwyesY6wMZq5Gg", "alias": "dariview-fairview-park", "name": "Dariview", "image_url": "https://s3-media3.fl.yelpcdn.com/bphoto/AjFj--XqOTQO8v4g0mjiAQ/o.jpg", "is_closed": false, "url": "https://www.yelp.com/biz/dariview-fairview-park?adjust_creative=XiulpY4J0xx_QhC29cyq-w&utm_campaign=yelp_api_v3&utm_medium=api_v3_business_search&utm_source=XiulpY4J0xx_QhC29cyq-w", "review_count": 22, "categories": [{"alias": "icecream", "title": "Ice Cream & Frozen Yogurt"}], "rating": 4.5, "coordinates": {"latitude": 41.4417905, "longitude": -81.8643071}, "transactions": [], "price": "$", "location": {"address1": "22004 Lorain Rd", "address2": "", "address3": "", "city": "Fairview Park", "zip_code": "44126", "country": "US", "state": "OH", "display_address": ["22004 Lorain Rd", "Fairview Park, OH 44126"]}, "phone": "+14407344797", "display_phone": "(440) 734-4797", "distance": 5605.653862190907}, {"id": "ZLVWlYQQxzZoJbg4w0gsMA", "alias": "flipside-rocky-river-rocky-river", "name": "FlipSide - Rocky River", "image_url": "https://s3-media3.fl.yelpcdn.com/bphoto/VPhffkdM92dCfnsQlEZXPg/o.jpg", "is_closed": false, "url": "https://www.yelp.com/biz/flipside-rocky-river-rocky-river?adjust_creative=XiulpY4J0xx_QhC29cyq-w&utm_campaign=yelp_api_v3&utm_medium=api_v3_business_search&utm_source=XiulpY4J0xx_QhC29cyq-w", "review_count": 169, "categories": [{"alias": "burgers", "title": "Burgers"}], "rating": 3.5, "coordinates": {"latitude": 41.482937, "longitude": -81.833666}, "transactions": ["delivery"], "price": "$$", "location": {"address1": "19071 Old Detroit Rd", "address2": "", "address3": "", "city": "Rocky River", "zip_code": "44116", "country": "US", "state": "OH", "display_address": ["19071 Old Detroit Rd", "Rocky River, OH 44116"]}, "phone": "+14407998888", "display_phone": "(440) 799-8888", "distance": 10450.60485574647}, {"id": "3uLvazEZrRFoAz6YiXcQug", "alias": "starbucks-avon-2", "name": "Starbucks", "image_url": "https://s3-media4.fl.yelpcdn.com/bphoto/vYuv8orRcvn0EngfMPjiZQ/o.jpg", "is_closed": false, "url": "https://www.yelp.com/biz/starbucks-avon-2?adjust_creative=XiulpY4J0xx_QhC29cyq-w&utm_campaign=yelp_api_v3&utm_medium=api_v3_business_search&utm_source=XiulpY4J0xx_QhC29cyq-w", "review_count": 55, "categories": [{"alias": "coffee", "title": "Coffee & Tea"}], "rating": 3.0, "coordinates": {"latitude": 41.45817364, "longitude": -82.01669799}, "transactions": ["delivery"], "price": "$$", "location": {"address1": "35825 Detroit Rd", "address2": "City Center of Avon", "address3": "", "city": "Avon", "zip_code": "44011", "country": "US", "state": "OH", "display_address": ["35825 Detroit Rd", "City Center of Avon", "Avon, OH 44011"]}, "phone": "+14409373794", "display_phone": "(440) 937-3794", "distance": 9134.260627829191}, {"id": "7JnFDiJu9cmOr3X_az0VnA", "alias": "burntwood-tavern-rocky-river", "name": "Burntwood Tavern", "image_url": "https://s3-media1.fl.yelpcdn.com/bphoto/Q-aOBQjSL4b-Ogw-x1ZIUA/o.jpg", "is_closed": false, "url": "https://www.yelp.com/biz/burntwood-tavern-rocky-river?adjust_creative=XiulpY4J0xx_QhC29cyq-w&utm_campaign=yelp_api_v3&utm_medium=api_v3_business_search&utm_source=XiulpY4J0xx_QhC29cyq-w", "review_count": 255, "categories": [{"alias": "newamerican", "title": "American (New)"}], "rating": 3.0, "coordinates": {"latitude": 41.48193406219616, "longitude": -81.83622791119546}, "transactions": ["delivery", "pickup"], "price": "$$", "location": {"address1": "19304 Detroit Rd", "address2": "", "address3": "", "city": "Rocky River", "zip_code": "44116", "country": "US", "state": "OH", "display_address": ["19304 Detroit Rd", "Rocky River, OH 44116"]}, "phone": "+14403336700", "display_phone": "(440) 333-6700", "distance": 10221.081550452867}, {"id": "kBZ-tBkOKGqUOAypk-L9Cg", "alias": "master-pizza-avon-2", "name": "Master Pizza", "image_url": "https://s3-media3.fl.yelpcdn.com/bphoto/AYBAAGDQB_jUOHbAqM_IrQ/o.jpg", "is_closed": false, "url": "https://www.yelp.com/biz/master-pizza-avon-2?adjust_creative=XiulpY4J0xx_QhC29cyq-w&utm_campaign=yelp_api_v3&utm_medium=api_v3_business_search&utm_source=XiulpY4J0xx_QhC29cyq-w", "review_count": 34, "categories": [{"alias": "pizza", "title": "Pizza"}], "rating": 3.0, "coordinates": {"latitude": 41.4603089104384, "longitude": -82.0158579522172}, "transactions": ["delivery", "pickup"], "price": "$$", "location": {"address1": "35954 Detroit Rd", "address2": "", "address3": null, "city": "Avon", "zip_code": "44011", "country": "US", "state": "OH", "display_address": ["35954 Detroit Rd", "Avon, OH 44011"]}, "phone": "+14404672424", "display_phone": "(440) 467-2424", "distance": 9197.530955090098}, {"id": "iqxB3ZreU5GjaVLFhxTdBQ", "alias": "herbs-tavern-rocky-river", "name": "Herb's Tavern", "image_url": "https://s3-media2.fl.yelpcdn.com/bphoto/ZRwxORCLKR7GQj2i7ylD5w/o.jpg", "is_closed": false, "url": "https://www.yelp.com/biz/herbs-tavern-rocky-river?adjust_creative=XiulpY4J0xx_QhC29cyq-w&utm_campaign=yelp_api_v3&utm_medium=api_v3_business_search&utm_source=XiulpY4J0xx_QhC29cyq-w", "review_count": 118, "categories": [{"alias": "tradamerican", "title": "American (Traditional)"}], "rating": 3.0, "coordinates": {"latitude": 41.47906, "longitude": -81.84216}, "transactions": ["delivery", "pickup"], "price": "$", "location": {"address1": "19925 Detroit Rd", "address2": "", "address3": "", "city": "Rocky River", "zip_code": "44116", "country": "US", "state": "OH", "display_address": ["19925 Detroit Rd", "Rocky River, OH 44116"]}, "phone": "+14403319870", "display_phone": "(440) 331-9870", "distance": 9646.487642604347}, {"id": "2R69cPqdAS3UV-aE0d7e5w", "alias": "starbucks-avon-lake", "name": "Starbucks", "image_url": "https://s3-media2.fl.yelpcdn.com/bphoto/ciloqHh9Ia5O-boeTU5oLA/o.jpg", "is_closed": false, "url": "https://www.yelp.com/biz/starbucks-avon-lake?adjust_creative=XiulpY4J0xx_QhC29cyq-w&utm_campaign=yelp_api_v3&utm_medium=api_v3_business_search&utm_source=XiulpY4J0xx_QhC29cyq-w", "review_count": 4, "categories": [{"alias": "coffee", "title": "Coffee & Tea"}], "rating": 1.5, "coordinates": {"latitude": 41.49339634, "longitude": -81.98587787}, "transactions": ["delivery"], "location": {"address1": "31990 Walker Rd", "address2": null, "address3": "Giant Eagle 1284 Avon Lake", "city": "Avon Lake", "zip_code": "44012", "country": "US", "state": "OH", "display_address": ["31990 Walker Rd", "Giant Eagle 1284 Avon Lake", "Avon Lake, OH 44012"]}, "phone": "+14409335078", "display_phone": "(440) 933-5078", "distance": 10062.829487998037}, {"id": "lgS5ld-FWeC19Gjg6n42ag", "alias": "speedway-avon-lake", "name": "Speedway", "image_url": "https://s3-media2.fl.yelpcdn.com/bphoto/lN3Ilsa-kU5MFMG7cGgg-Q/o.jpg", "is_closed": false, "url": "https://www.yelp.com/biz/speedway-avon-lake?adjust_creative=XiulpY4J0xx_QhC29cyq-w&utm_campaign=yelp_api_v3&utm_medium=api_v3_business_search&utm_source=XiulpY4J0xx_QhC29cyq-w", "review_count": 4, "categories": [{"alias": "servicestations", "title": "Gas Stations"}, {"alias": "convenience", "title": "Convenience Stores"}, {"alias": "coffee", "title": "Coffee & Tea"}], "rating": 2.5, "coordinates": {"latitude": 41.49285, "longitude": -82.01937}, "transactions": ["delivery", "pickup"], "location": {"address1": "32769 Walker Road", "address2": "", "address3": "", "city": "Avon Lake", "zip_code": "44012", "country": "US", "state": "OH", "display_address": ["32769 Walker Road", "Avon Lake, OH 44012"]}, "phone": "+14409339243", "display_phone": "(440) 933-9243", "distance": 11723.296419761604}, {"id": "N4pjF_24Qtyu4e9tU3MYmA", "alias": "crumbl-cookies-fairview-park-fairview-park", "name": "Crumbl Cookies - Fairview Park", "image_url": "https://s3-media4.fl.yelpcdn.com/bphoto/H76YCH9QsxOAhEnqd8j0pQ/o.jpg", "is_closed": false, "url": "https://www.yelp.com/biz/crumbl-cookies-fairview-park-fairview-park?adjust_creative=XiulpY4J0xx_QhC29cyq-w&utm_campaign=yelp_api_v3&utm_medium=api_v3_business_search&utm_source=XiulpY4J0xx_QhC29cyq-w", "review_count": 6, "categories": [{"alias": "bakeries", "title": "Bakeries"}, {"alias": "desserts", "title": "Desserts"}, {"alias": "icecream", "title": "Ice Cream & Frozen Yogurt"}], "rating": 4.0, "coordinates": {"latitude": 41.461031, "longitude": -81.851377}, "transactions": ["delivery", "pickup"], "location": {"address1": "3038 Westgate Mall", "address2": "#20", "address3": null, "city": "Fairview Park", "zip_code": "44126", "country": "US", "state": "OH", "display_address": ["3038 Westgate Mall", "#20", "Fairview Park, OH 44126"]}, "phone": "+14405755666", "display_phone": "(440) 575-5666", "distance": 7722.352333952507}, {"id": "0MwyyMjGD4oqwEvv_mfA5A", "alias": "subway-avon-18", "name": "Subway", "image_url": "https://s3-media3.fl.yelpcdn.com/bphoto/rd27buv9sM8N9JOel602Ww/o.jpg", "is_closed": false, "url": "https://www.yelp.com/biz/subway-avon-18?adjust_creative=XiulpY4J0xx_QhC29cyq-w&utm_campaign=yelp_api_v3&utm_medium=api_v3_business_search&utm_source=XiulpY4J0xx_QhC29cyq-w", "review_count": 3, "categories": [{"alias": "sandwiches", "title": "Sandwiches"}, {"alias": "hotdogs", "title": "Fast Food"}], "rating": 1.5, "coordinates": {"latitude": 41.4597405124256, "longitude": -82.0160122326294}, "transactions": ["delivery", "pickup"], "price": "$", "location": {"address1": "35970 Detroit Rd", "address2": "", "address3": "", "city": "Avon", "zip_code": "44011", "country": "US", "state": "OH", "display_address": ["35970 Detroit Rd", "Avon, OH 44011"]}, "phone": "+14409374042", "display_phone": "(440) 937-4042", "distance": 9175.15783768342}, {"id": "fSYdQCfFF5zsOapeUcY25A", "alias": "piada-italian-street-food-rocky-river", "name": "Piada Italian Street Food", "image_url": "https://s3-media3.fl.yelpcdn.com/bphoto/M4g3WmUmlzNl1Qd8dNku4Q/o.jpg", "is_closed": false, "url": "https://www.yelp.com/biz/piada-italian-street-food-rocky-river?adjust_creative=XiulpY4J0xx_QhC29cyq-w&utm_campaign=yelp_api_v3&utm_medium=api_v3_business_search&utm_source=XiulpY4J0xx_QhC29cyq-w", "review_count": 150, "categories": [{"alias": "italian", "title": "Italian"}, {"alias": "salad", "title": "Salad"}, {"alias": "wraps", "title": "Wraps"}], "rating": 3.5, "coordinates": {"latitude": 41.4640897, "longitude": -81.84336}, "transactions": ["delivery"], "price": "$", "location": {"address1": "19925 Center Ridge Rd", "address2": "", "address3": "", "city": "Rocky River", "zip_code": "44116", "country": "US", "state": "OH", "display_address": ["19925 Center Ridge Rd", "Rocky River, OH 44116"]}, "phone": "+14403331530", "display_phone": "(440) 333-1530", "distance": 8447.01976806699}, {"id": "x1o-xthDH_r0pBxAs0GjSA", "alias": "mitchells-homemade-ice-cream-avon-avon-2", "name": "Mitchell's Homemade Ice Cream - Avon", "image_url": "https://s3-media1.fl.yelpcdn.com/bphoto/pK8ANNydz71U5RmaUAA27w/o.jpg", "is_closed": false, "url": "https://www.yelp.com/biz/mitchells-homemade-ice-cream-avon-avon-2?adjust_creative=XiulpY4J0xx_QhC29cyq-w&utm_campaign=yelp_api_v3&utm_medium=api_v3_business_search&utm_source=XiulpY4J0xx_QhC29cyq-w", "review_count": 100, "categories": [{"alias": "desserts", "title": "Desserts"}, {"alias": "icecream", "title": "Ice Cream & Frozen Yogurt"}, {"alias": "kosher", "title": "Kosher"}], "rating": 4.5, "coordinates": {"latitude": 41.4572410583496, "longitude": -82.0107650756836}, "transactions": ["delivery"], "price": "$", "location": {"address1": "35520 Detroit Rd", "address2": "", "address3": "", "city": "Avon", "zip_code": "44011", "country": "US", "state": "OH", "display_address": ["35520 Detroit Rd", "Avon, OH 44011"]}, "phone": "+14409378816", "display_phone": "(440) 937-8816", "distance": 8648.895471961565}, {"id": "8RHnmBwWd0Cicq_ttN6LQg", "alias": "erie-island-coffee-company-rocky-river", "name": "Erie Island Coffee Company", "image_url": "https://s3-media2.fl.yelpcdn.com/bphoto/6RWFh5UXjMOZH6Wof6CyUg/o.jpg", "is_closed": false, "url": "https://www.yelp.com/biz/erie-island-coffee-company-rocky-river?adjust_creative=XiulpY4J0xx_QhC29cyq-w&utm_campaign=yelp_api_v3&utm_medium=api_v3_business_search&utm_source=XiulpY4J0xx_QhC29cyq-w", "review_count": 131, "categories": [{"alias": "coffee", "title": "Coffee & Tea"}], "rating": 3.5, "coordinates": {"latitude": 41.4819899014129, "longitude": -81.8363503446358}, "transactions": ["delivery", "pickup"], "price": "$$", "location": {"address1": "19300 Detroit Rd", "address2": "", "address3": "", "city": "Rocky River", "zip_code": "44116", "country": "US", "state": "OH", "display_address": ["19300 Detroit Rd", "Rocky River, OH 44116"]}, "phone": "+14403331510", "display_phone": "(440) 333-1510", "distance": 10218.346643218769}, {"id": "PPFcjkmg8DlU4AL8525W0g", "alias": "mitchells-ice-cream-rocky-river-rocky-river", "name": "Mitchell's Ice Cream - Rocky River", "image_url": "https://s3-media2.fl.yelpcdn.com/bphoto/PGAtHBSXsk5kvEtNWBC-Jw/o.jpg", "is_closed": false, "url": "https://www.yelp.com/biz/mitchells-ice-cream-rocky-river-rocky-river?adjust_creative=XiulpY4J0xx_QhC29cyq-w&utm_campaign=yelp_api_v3&utm_medium=api_v3_business_search&utm_source=XiulpY4J0xx_QhC29cyq-w", "review_count": 128, "categories": [{"alias": "icecream", "title": "Ice Cream & Frozen Yogurt"}], "rating": 4.5, "coordinates": {"latitude": 41.48002, "longitude": -81.84051}, "transactions": ["delivery"], "price": "$", "location": {"address1": "19700 Detroit Rd", "address2": "", "address3": "", "city": "Rocky River", "zip_code": "44116", "country": "US", "state": "OH", "display_address": ["19700 Detroit Rd", "Rocky River, OH 44116"]}, "phone": "+14403334563", "display_phone": "(440) 333-4563", "distance": 9834.821395485234}, {"id": "CMn5QTXjtzmWie1RdTlXeQ", "alias": "starbucks-fairview-park-2", "name": "Starbucks", "image_url": "https://s3-media1.fl.yelpcdn.com/bphoto/uLzog0wI3fL7HuwHF7svGw/o.jpg", "is_closed": false, "url": "https://www.yelp.com/biz/starbucks-fairview-park-2?adjust_creative=XiulpY4J0xx_QhC29cyq-w&utm_campaign=yelp_api_v3&utm_medium=api_v3_business_search&utm_source=XiulpY4J0xx_QhC29cyq-w", "review_count": 38, "categories": [{"alias": "coffee", "title": "Coffee & Tea"}], "rating": 3.0, "coordinates": {"latitude": 41.462428, "longitude": -81.849419}, "transactions": ["delivery"], "price": "$$", "location": {"address1": "20645 Center Ridge Rd", "address2": "Westgate Mall", "address3": null, "city": "Fairview Park", "zip_code": "44126", "country": "US", "state": "OH", "display_address": ["20645 Center Ridge Rd", "Westgate Mall", "Fairview Park, OH 44126"]}, "phone": "+14403313305", "display_phone": "(440) 331-3305", "distance": 7939.656743992621}, {"id": "JxxHisLgPWCxTN-0LOeZZw", "alias": "graeters-ice-cream-westlake-6", "name": "Graeter's Ice Cream", "image_url": "https://s3-media3.fl.yelpcdn.com/bphoto/PS0wMdyjJURTlZzc5ZSoDg/o.jpg", "is_closed": false, "url": "https://www.yelp.com/biz/graeters-ice-cream-westlake-6?adjust_creative=XiulpY4J0xx_QhC29cyq-w&utm_campaign=yelp_api_v3&utm_medium=api_v3_business_search&utm_source=XiulpY4J0xx_QhC29cyq-w", "review_count": 35, "categories": [{"alias": "icecream", "title": "Ice Cream & Frozen Yogurt"}, {"alias": "candy", "title": "Candy Stores"}, {"alias": "bakeries", "title": "Bakeries"}], "rating": 4.0, "coordinates": {"latitude": 41.456407, "longitude": -81.9512549}, "transactions": ["delivery"], "price": "$$", "location": {"address1": "261 Main St", "address2": null, "address3": "", "city": "Westlake", "zip_code": "44145", "country": "US", "state": "OH", "display_address": ["261 Main St", "Westlake, OH 44145"]}, "phone": "+14408992158", "display_phone": "(440) 899-2158", "distance": 5084.3051409129885}, {"id": "UobSPAAzgt7HKmWoepi31A", "alias": "mcdonalds-westlake", "name": "McDonald's", "image_url": "https://s3-media3.fl.yelpcdn.com/bphoto/xaDJKs6WVIhowftLmBT-og/o.jpg", "is_closed": false, "url": "https://www.yelp.com/biz/mcdonalds-westlake?adjust_creative=XiulpY4J0xx_QhC29cyq-w&utm_campaign=yelp_api_v3&utm_medium=api_v3_business_search&utm_source=XiulpY4J0xx_QhC29cyq-w", "review_count": 26, "categories": [{"alias": "hotdogs", "title": "Fast Food"}, {"alias": "burgers", "title": "Burgers"}, {"alias": "coffee", "title": "Coffee & Tea"}], "rating": 2.0, "coordinates": {"latitude": 41.4637571886999, "longitude": -81.9539268314838}, "transactions": ["delivery"], "price": "$", "location": {"address1": "30100 Detroit Rd", "address2": "", "address3": "", "city": "Westlake", "zip_code": "44145", "country": "US", "state": "OH", "display_address": ["30100 Detroit Rd", "Westlake, OH 44145"]}, "phone": "+14408352397", "display_phone": "(440) 835-2397", "distance": 5883.009445220788}, {"id": "WYDjn71X5xiEdpLxlT12hQ", "alias": "chipotle-mexican-grill-fairview-park", "name": "Chipotle Mexican Grill", "image_url": "https://s3-media1.fl.yelpcdn.com/bphoto/Rea26Sw_WiNHSqhhTTu1xw/o.jpg", "is_closed": false, "url": "https://www.yelp.com/biz/chipotle-mexican-grill-fairview-park?adjust_creative=XiulpY4J0xx_QhC29cyq-w&utm_campaign=yelp_api_v3&utm_medium=api_v3_business_search&utm_source=XiulpY4J0xx_QhC29cyq-w", "review_count": 120, "categories": [{"alias": "hotdogs", "title": "Fast Food"}, {"alias": "mexican", "title": "Mexican"}], "rating": 2.0, "coordinates": {"latitude": 41.4613619447047, "longitude": -81.8529718527612}, "transactions": ["delivery", "pickup"], "price": "$", "location": {"address1": "21029 Center Ridge Rd", "address2": null, "address3": null, "city": "Fairview Park", "zip_code": "44126", "country": "US", "state": "OH", "display_address": ["21029 Center Ridge Rd", "Fairview Park, OH 44126"]}, "phone": "+14403563109", "display_phone": "(440) 356-3109", "distance": 7637.4124656338445}, {"id": "iGJFu5WofKIGD9nRj1-zRQ", "alias": "heinens-grocery-store-rocky-river-2", "name": "Heinen's Grocery Store", "image_url": "https://s3-media2.fl.yelpcdn.com/bphoto/f4bpyS8r6pDL0a5t_bUDWg/o.jpg", "is_closed": false, "url": "https://www.yelp.com/biz/heinens-grocery-store-rocky-river-2?adjust_creative=XiulpY4J0xx_QhC29cyq-w&utm_campaign=yelp_api_v3&utm_medium=api_v3_business_search&utm_source=XiulpY4J0xx_QhC29cyq-w", "review_count": 78, "categories": [{"alias": "grocery", "title": "Grocery"}], "rating": 4.0, "coordinates": {"latitude": 41.4818115, "longitude": -81.8347397}, "transactions": [], "price": "$$", "location": {"address1": "19219 Detroit Rd", "address2": "", "address3": "", "city": "Rocky River", "zip_code": "44116", "country": "US", "state": "OH", "display_address": ["19219 Detroit Rd", "Rocky River, OH 44116"]}, "phone": "+14403313830", "display_phone": "(440) 331-3830", "distance": 10288.126587635486}, {"id": "a1DFzgQRYAmfA5o1fDVPEQ", "alias": "insomnia-cookies-lakewood", "name": "Insomnia Cookies", "image_url": "https://s3-media1.fl.yelpcdn.com/bphoto/NdonkATpVrjL8UKehlPpWQ/o.jpg", "is_closed": false, "url": "https://www.yelp.com/biz/insomnia-cookies-lakewood?adjust_creative=XiulpY4J0xx_QhC29cyq-w&utm_campaign=yelp_api_v3&utm_medium=api_v3_business_search&utm_source=XiulpY4J0xx_QhC29cyq-w", "review_count": 53, "categories": [{"alias": "desserts", "title": "Desserts"}, {"alias": "icecream", "title": "Ice Cream & Frozen Yogurt"}, {"alias": "fooddeliveryservices", "title": "Food Delivery Services"}], "rating": 3.0, "coordinates": {"latitude": 41.482078, "longitude": -81.827128}, "transactions": ["delivery", "pickup"], "price": "$", "location": {"address1": "18508 Detroit Ave", "address2": "", "address3": null, "city": "Lakewood", "zip_code": "44107", "country": "US", "state": "OH", "display_address": ["18508 Detroit Ave", "Lakewood, OH 44107"]}, "phone": "+12165866313", "display_phone": "(216) 586-6313", "distance": 10783.873583405306}, {"id": "f0ELDvCsvHaWwxGodOd8Sw", "alias": "inca-tea-cafe-cleveland", "name": "Inca Tea Cafe", "image_url": "https://s3-media1.fl.yelpcdn.com/bphoto/JQ8OYYQ6tJ_L4eDIFVKS7A/o.jpg", "is_closed": false, "url": "https://www.yelp.com/biz/inca-tea-cafe-cleveland?adjust_creative=XiulpY4J0xx_QhC29cyq-w&utm_campaign=yelp_api_v3&utm_medium=api_v3_business_search&utm_source=XiulpY4J0xx_QhC29cyq-w", "review_count": 41, "categories": [{"alias": "coffee", "title": "Coffee & Tea"}, {"alias": "icecream", "title": "Ice Cream & Frozen Yogurt"}, {"alias": "sandwiches", "title": "Sandwiches"}], "rating": 4.0, "coordinates": {"latitude": 41.40854970720977, "longitude": -81.84054993060388}, "transactions": [], "price": "$", "location": {"address1": "5300 Riverside Dr", "address2": "", "address3": "Cleveland Hopkins International Airport", "city": "Cleveland", "zip_code": "44135", "country": "US", "state": "OH", "display_address": ["5300 Riverside Dr", "Cleveland Hopkins International Airport", "Cleveland, OH 44135"]}, "phone": "+18444622832", "display_phone": "(844) 462-2832", "distance": 6874.011333451271}, {"id": "nUogaVQovKvmKHDFGmFlQA", "alias": "starbucks-coffee-cleveland-19", "name": "STARBUCKS COFFEE", "image_url": "https://s3-media1.fl.yelpcdn.com/bphoto/PkiRXFxAWYUYtPL8ZPtGAg/o.jpg", "is_closed": false, "url": "https://www.yelp.com/biz/starbucks-coffee-cleveland-19?adjust_creative=XiulpY4J0xx_QhC29cyq-w&utm_campaign=yelp_api_v3&utm_medium=api_v3_business_search&utm_source=XiulpY4J0xx_QhC29cyq-w", "review_count": 28, "categories": [{"alias": "coffee", "title": "Coffee & Tea"}], "rating": 3.5, "coordinates": {"latitude": 41.3715799848749, "longitude": -81.826373}, "transactions": ["delivery"], "price": "$$", "location": {"address1": "17999 Bagley Rd", "address2": "", "address3": "", "city": "Cleveland", "zip_code": "44130", "country": "US", "state": "OH", "display_address": ["17999 Bagley Rd", "Cleveland, OH 44130"]}, "phone": "+12169048217", "display_phone": "(216) 904-8217", "distance": 9430.573323564617}, {"id": "MUMiGoEZ3NBwebH4Eff4LA", "alias": "dq-orange-julius-lakewood", "name": "DQ / Orange Julius", "image_url": "https://s3-media3.fl.yelpcdn.com/bphoto/XmLCXd9SGUDt2BOPzA3Xgw/o.jpg", "is_closed": false, "url": "https://www.yelp.com/biz/dq-orange-julius-lakewood?adjust_creative=XiulpY4J0xx_QhC29cyq-w&utm_campaign=yelp_api_v3&utm_medium=api_v3_business_search&utm_source=XiulpY4J0xx_QhC29cyq-w", "review_count": 22, "categories": [{"alias": "icecream", "title": "Ice Cream & Frozen Yogurt"}, {"alias": "hotdogs", "title": "Fast Food"}, {"alias": "burgers", "title": "Burgers"}], "rating": 3.0, "coordinates": {"latitude": 41.485052, "longitude": -81.813922}, "transactions": ["delivery", "pickup"], "price": "$", "location": {"address1": "16803 Detroit Rd", "address2": "", "address3": "", "city": "Lakewood", "zip_code": "44107", "country": "US", "state": "OH", "display_address": ["16803 Detroit Rd", "Lakewood, OH 44107"]}, "phone": "+12165217763", "display_phone": "(216) 521-7763", "distance": 10440.048358571448}]